place_id,canonical_name,lat,lng,address,category,sub_category,keywords,district,image_url,source_url,source,location_confidence
POI_15513C41,(재)한원미술관,37.4817811288984,127.015435697895,"서울특별시 서초구 남부순환로 2423, 한원빌딩 본관 B1F",미술관/갤러리,,,서초구,https://culture.seoul.go.kr/cmmn/file/getImage.do?atchFileId=e4880c38b89f4c5ab51d693613b6a208&thumb=Y,http://hanwon.org,서울시문화공간,A
POI_28BBB2C5,104고지,37.5678393,126.9261134,,지명,,,,,,서울역사편찬원,C
POI_BBB0D81F,17717,37.5911362215001,127.004400808532,서울 성북구 성북로8길 11 B1,미술관/갤러리,,,성북구,https://culture.seoul.go.kr/cmmn/file/getImage.do?atchFileId=6c30f8376ecd4aa4b4ccf429b69d205e&thumb=Y,http://17717.co.kr/,서울시문화공간,A
POI_8F69E92B,1950년대 시장의 아낙네들을 판화로 담은 빌리 세일러,37.5808477574564,126.9768513578,서울특별시 종로구 세종로 1-1,그림으로 보는 한국의 전통시장,상인을 그린 작가,"시장, 어시장, 동판화, 빌리세일러, 에칭",종로구,https://minio.nculture.org/amsweb-opt/multimedia_assets/193/85116/84492/c/%EB%B9%8C%EB%A6%AC-%EC%84%B8%EC%9D%BC%EB%9F%AC_%EB%8B%A4%EC%83%89%EB%8F%99%ED%8C%90%ED%99%94%281%29_%EA%B5%AD%EB%A6%BD%EB%AF%BC%EC%86%8D%EB%B0%95%EB%AC%BC%EA%B4%80_%EC%A0%9C1%EC%9C%A0%ED%98%95-thumb.jpg,https://ncms.nculture.org/market/story/7107,nculture,
POI_03F19C7D,1인미디어콤플렉스,37.5578385325826,126.9744151,서울 중구 세종대로 14 GRAND CENTRAL A동 5F,기타,,,중구,https://culture.seoul.go.kr/cmmn/file/getImage.do?atchFileId=3958252b648d446780b7d42ff02ec9f1&thumb=Y,https://meplex.co.kr/,서울시문화공간,A
POI_01611C19,2ND AVENUE GALLERY,37.555139463911,126.994911633545,서울특별시 중구 필동로8길 22,미술관/갤러리,,,중구,https://culture.seoul.go.kr/cmmn/file/getImage.do?atchFileId=ATH_SPC_000000000000000000101263&thumb=Y,http://www.gallery2ndave.com/gallery/about,서울시문화공간,A
POI_25390B2A,3*1고가도로,37.568320,126.987512,,지명,,,,,,서울역사편찬원,C
POI_5B44AD18,4*19길,37.647258,127.010052,,지명,,,,,,서울역사편찬원,C
POI_0F789174,57th갤러리,37.5764227904413,126.982592565586,"서울 종로구 율곡로3길 17 2층, 지하",미술관/갤러리,,,종로구,https://culture.seoul.go.kr/cmmn/file/getImage.do?atchFileId=fe144b99d516421282c1e88cb7b1018d&thumb=Y,http://www.57gallery.co.kr/,서울시문화공간,A
POI_5550F103,88올림픽도로,37.5202036,127.0636546,,지명,,,,,,서울역사편찬원,C
POI_3B353148,ADM 갤러리,37.493208661734,127.035638210136,서울특별시 강남구 역삼로14길 20,미술관/갤러리,,,강남구,https://culture.seoul.go.kr/cmmn/file/getImage.do?atchFileId=372f7ac47341428b86e646bd131a4d49&thumb=Y,https://www.admgallery.co.kr/,서울시문화공간,A
POI_045E1CD8,ALT SPACE,37.5577104175282,126.984917948957,서울특별시 중구 퇴계로18길 77,기타,,,중구,https://culture.seoul.go.kr/cmmn/file/getImage.do?atchFileId=f86bb7da17654ed2bd1866f6e0bbd206&thumb=Y,https://alt9.xyz/,서울시문화공간,A
POI_1155CE4F,ANDNEW GALLERY(앤드뉴 갤러리),37.5588656635722,126.940066426045,서울특별시 서대문구 명물길 70 B1,미술관/갤러리,,,서대문구,https://culture.seoul.go.kr/cmmn/file/getImage.do?atchFileId=6adef6460af244afa0fda914243fcbbe&thumb=Y,https://www.instagram.com/andnewgallery/,서울시문화공간,A
POI_C7C96307,Art Space Loo,37.5311348836415,126.970500533465,서울특별시 용산구 한강대로44길 5,미술관/갤러리,,,용산구,https://culture.seoul.go.kr/cmmn/file/getImage.do?atchFileId=b3f923041a5348e3afd38862f2f15732&thumb=Y,정보없음,서울시문화공간,A
POI_CED4D955,BHAK,37.5428868498054,127.003200910809,서울특별시 용산구 한남대로40길 19,미술관/갤러리,,,용산구,https://culture.seoul.go.kr/cmmn/file/getImage.do?atchFileId=ATH_SPC_000000000000000000100060&thumb=Y,http://www.galeriebhak.com/,서울시문화공간,A
POI_5A6FF978,CJ아지트 광흥창,37.5442465888293,126.930342267233,서울특별시 마포구 창전로 14,공연장,,,마포구,https://culture.seoul.go.kr/cmmn/file/getImage.do?atchFileId=058834b306284f099c93e5eb14b9825f&thumb=Y,https://www.cjazit.org/cjazit/,서울시문화공간,A
POI_8951FB85,CKL스테이지,37.5685285762171,126.981627280645,서울특별시 중구 청계천로 40 CKL기업지원센터 지하 1층 (한국관광공사 건물),공연장,,,중구,https://culture.seoul.go.kr/cmmn/file/getImage.do?atchFileId=5752fb7d3e914b23aabb1c1806c8bec1&thumb=Y,https://venture.ckl.or.kr/event/cklStageEvent.do,서울시문화공간,A
POI_21CB3AFF,CN갤러리 (충남문화예술 서울전시장),37.5800389234192,126.981945857423,서울특별시 종로구 북촌로5길 56-7 CN갤러리(정독도서관 앞),미술관/갤러리,,,종로구,https://culture.seoul.go.kr/cmmn/file/getImage.do?atchFileId=c85ee593e6b74ce18547175b735bc1af&thumb=Y,https://cngallery.kr/,서울시문화공간,A
POI_F6CA1628,CTS 아트홀,37.5129486320073,126.937000804909,서울특별시 동작구 노량진로 100 기독교TV멀티미디어센터 지하 2층,공연장,,,동작구,https://culture.seoul.go.kr/cmmn/file/getImage.do?atchFileId=b021dec26f3d41d0880a02e3a3e8c1f8&thumb=Y,http://rent.ctsart.co.kr/,서울시문화공간,A
POI_3FC37938,DDP(동대문디자인플라자),37.56735731522952,127.0097797348434,서울특별시 중구 을지로 281,기타,,,중구,https://culture.seoul.go.kr/cmmn/file/getImage.do?atchFileId=04ae3506f18f4fb39a8553095364f973&thumb=Y,http://www.ddp.or.kr,서울시문화공간,A
POI_4B0CAF8A,GB 가빈아트홀,37.5096776765406,127.055536318832,"서울특별시 강남구 삼성로 534, B2층 가빈아트홀",공연장,,,강남구,https://culture.seoul.go.kr/cmmn/file/getImage.do?atchFileId=4673808b54a54aadb5a359487e5de244&thumb=Y,https://gabin-arthall.com,서울시문화공간,A
POI_AEF8CB52,GS아트센터,37.5019949322814,127.037336400239,서울특별시 강남구 논현로 508,공연장,,,강남구,https://culture.seoul.go.kr/cmmn/file/getImage.do?atchFileId=8a2b1ef1e94f4c73969b2a41c8571589&thumb=Y,https://www.gsartscenter.com,서울시문화공간,A
POI_575F5FED,G밸리산업박물관,37.4798477003537,126.895318461208,서울특별시 구로구 디지털로26길 38 G타워 3층,박물관/기념관,,,구로구,https://culture.seoul.go.kr/cmmn/file/getImage.do?atchFileId=cafc4dbbdd034363bff5b6044a8ff27a&thumb=Y,https://www.seoul.go.kr/museumg/index.do,서울시문화공간,A
POI_E9E914B0,IPAC아트홀,37.4868994848558,127.015459364908,서울특별시 서초구 서초중앙로 56,공연장,,,서초구,https://culture.seoul.go.kr/cmmn/file/getImage.do?atchFileId=19c3684197c447f593823911e9270946&thumb=Y,https://ipac.or.kr/,서울시문화공간,A
POI_B97A818C,JBK컨벤션홀,37.5150273653092,127.063116769411,서울 강남구 봉은사로 619 JBK TOWER 빌딩,기타,,,강남구,https://culture.seoul.go.kr/cmmn/file/getImage.do?atchFileId=ebd61bdbf7824cc2afe8a48c72f16b3e&thumb=Y,http://jbktower.com/g5/,서울시문화공간,A
POI_4B37AEB0,JCC 아트센터,37.5871831839413,127.001885702262,서울특별시 종로구 창경궁로35길 29,공연장,,,종로구,https://culture.seoul.go.kr/cmmn/file/getImage.do?atchFileId=ATH_SPC_000000000000000000100931&thumb=Y,https://www.jeijcc.org/intro.html,서울시문화공간,A
POI_D17203D6,KBS홀,37.5259698897016,126.916716838156,서울특별시 영등포구 여의공원로 13,공연장,,,영등포구,https://culture.seoul.go.kr/cmmn/file/getImage.do?atchFileId=a0c7f5d3519240e691811ab891b1b2dc&thumb=Y,https://program.kbs.co.kr/online/office/hall/pc/index.html,서울시문화공간,A
POI_271859EB,KCDF갤러리,37.5740079809751,126.984128478814,서울특별시 종로구 인사동11길 8,미술관/갤러리,,,종로구,https://culture.seoul.go.kr/cmmn/file/getImage.do?atchFileId=d42e8654eba74aba83fac4f86ea515c0&thumb=Y,https://www.instagram.com/kcdf_insta/,서울시문화공간,A
POI_54E980C7,KOCCA 콘텐츠문화광장,37.5907260121955,127.04489735201,서울특별시 동대문구 회기로 66,공연장,,,동대문구,https://culture.seoul.go.kr/cmmn/file/getImage.do?atchFileId=ccf5a6fc0c014197ac501009f5eb3cb7&thumb=Y,https://edu.kocca.kr/testbed/main/main.do,서울시문화공간,A
POI_FDC7DC93,KP Gallery,37.553335577368,126.97730689223,서울특별시 용산구 소월로2나길 12,미술관/갤러리,,,용산구,https://culture.seoul.go.kr/cmmn/file/getImage.do?atchFileId=ATH_SPC_000000000000000000101532&thumb=Y,http://kpgallery.co.kr/,서울시문화공간,A
POI_8238D0B7,KT&G 상상마당 대치아트홀,37.5065841136869,127.065326637295,서울특별시 강남구 영동대로 416 KT&G 타워 3층,공연장,,,강남구,https://culture.seoul.go.kr/cmmn/file/getImage.do?atchFileId=2f10273e2ea148b49f6699ec5d54d86f&thumb=Y,https://www.sangsangmadang.com/main/DC,서울시문화공간,A
POI_01FB7D5E,KT&G 상상마당 홍대 갤러리,37.5509576951977,126.921063042067,서울특별시 마포구 어울마당로 65,미술관/갤러리,,,마포구,https://culture.seoul.go.kr/cmmn/file/getImage.do?atchFileId=6f7d2ada007e42e9a6a16cbbf09c7812&thumb=Y,https://www.sangsangmadang.com/main/HD,서울시문화공간,A
POI_D1E589C7,K현대미술관,37.5243794232829,127.039171716001,서울특별시 강남구 선릉로 807,미술관/갤러리,,,강남구,https://culture.seoul.go.kr/cmmn/file/getImage.do?atchFileId=ae88e852034b448f9bda58e08cbb6d71&thumb=Y,http://www.kmcaseoul.org,서울시문화공간,A
POI_65CC5877,LDK,37.5331280165774,127.003508572886,서울 용산구 대사관로20길 8 ldk,기타,,,용산구,https://culture.seoul.go.kr/cmmn/file/getImage.do?atchFileId=fc1fed9879b342d0a15223aea2df6b9e&thumb=Y,https://www.instagram.com/ldk_roomservice,서울시문화공간,A
POI_CA48D658,LG상남도서관,37.5797322332183,126.98848528683,서울특별시 종로구 창덕궁1길 18,도서관,,,종로구,https://culture.seoul.go.kr/cmmn/file/getImage.do?atchFileId=5363a50f8ef2472ba2c24482fad66d8c&thumb=Y,http://www.lg.or.kr,서울시문화공간,A
POI_28227002,LG아트센터 서울,37.5653629860767,126.829388763217,서울특별시 강서구 마곡중앙로 136 LG아트센터 서울,공연장,,,강서구,https://culture.seoul.go.kr/cmmn/file/getImage.do?atchFileId=697a80a322e24ae88ee07962800cdcf6&thumb=Y,https://www.lgart.com/home/ko/main,서울시문화공간,A
POI_3743CE6D,MGFS100갤러리,37.5861678210732,126.981816438846,서울특별시 종로구 삼청로 122 1층,미술관/갤러리,,,종로구,https://culture.seoul.go.kr/cmmn/file/getImage.do?atchFileId=56198e8f127f461b954250bef5e063b1&thumb=Y,https://www.mgfs.co.kr/,서울시문화공간,A
POI_873E9B0A,M극장,37.4737004711717,127.052950914694,서울특별시 강남구 논현로4길 36,공연장,,,강남구,https://culture.seoul.go.kr/cmmn/file/getImage.do?atchFileId=c556539de9d74466b5792e74ae26ab96&thumb=Y,https://www.mtheater.co.kr/,서울시문화공간,A
POI_5AF9EA25,NC문화재단,37.5798042434578,127.004616599397,서울특별시 종로구 이화장길 100,기타,,,종로구,https://culture.seoul.go.kr/cmmn/file/getImage.do?atchFileId=b494d385d3e34228b96716a72f097090&thumb=Y,https://www.ncfoundation.or.kr/info/space,서울시문화공간,A
POI_4D0BF42C,NOL 유니플렉스,37.5811975750507,127.00362019054,서울특별시 종로구 대학로12길 64,공연장,,,종로구,https://culture.seoul.go.kr/cmmn/file/getImage.do?atchFileId=d1870f977f8b425780ba7dedaa341f54&thumb=Y,http://www.uniplex.co.kr/,서울시문화공간,A
POI_54A76163,N서울타워,37.5511225714939,126.987867837993,서울특별시 용산구 남산공원길 105,기타,,,용산구,https://culture.seoul.go.kr/cmmn/file/getImage.do?atchFileId=e299a9192047455abfd5b52de06f2c5c&thumb=Y,http://www.nseoultower.com,서울시문화공간,A
POI_C4684B03,OCI미술관,37.5732395069024,126.982128279816,서울특별시 종로구 우정국로 45-14,미술관/갤러리,,,종로구,https://culture.seoul.go.kr/cmmn/file/getImage.do?atchFileId=619b6d7839bb49e6a21be479602fb28d&thumb=Y,http://ocimuseum.org,서울시문화공간,A
POI_B2E97492,OMG,37.5332386145003,127.001288096524,서울 용산구 대사관로12길 8 지하층 101호,미술관/갤러리,,,용산구,https://culture.seoul.go.kr/cmmn/file/getImage.do?atchFileId=46967c4e9d9f4f068a6bb25613b2b126&thumb=Y,https://www.omg-kr.com/,서울시문화공간,A
POI_21ABCC6F,PKM 갤러리,37.5840916531266,126.980082350686,서울 종로구 삼청로7길 40 PKM 갤러리,미술관/갤러리,,,종로구,https://culture.seoul.go.kr/cmmn/file/getImage.do?atchFileId=fb72a462aa1e4514b58bd10dc27eb9fc&thumb=Y,http://www.pkmgallery.com/,서울시문화공간,A
POI_83AF807A,PS CENTER, 37.56787,126.9967,"서울 중구 창경궁로5다길 18, 3층 ",미술관/갤러리,,,중구,https://culture.seoul.go.kr/cmmn/file/getImage.do?atchFileId=0aa5a1ed040c4fd9a08c6de90b208b90&thumb=Y,https://www.instagram.com/p.s.center,서울시문화공간,A
POI_368ADF06,RNL 로즈앤라임 갤러리,37.5560473866483,127.011629334897,서울 중구 다산로 138 B1,미술관/갤러리,,,중구,https://culture.seoul.go.kr/cmmn/file/getImage.do?atchFileId=3d9099819a5047afa76106d3282534e0&thumb=Y,https://www.rosenlime.com/RNL_exhibitions,서울시문화공간,A
POI_4C5CA2A1,SETEC전시장(서울무역전시장),37.4956786590374,127.071912029293,서울특별시 강남구 남부순환로 3104,기타,,,강남구,https://culture.seoul.go.kr/cmmn/file/getImage.do?atchFileId=4447c43164154e67b32284157e4a1482&thumb=Y,http://www.setec.or.kr/,서울시문화공간,A
POI_76A90348,SPACE 1257,37.5125036615996,127.026928980849,"서울특별시 강남구 학동로 146, 와일리 타워 1층",기타,,,강남구,https://culture.seoul.go.kr/cmmn/file/getImage.do?atchFileId=025757b592d5461d9c09fddbb3accb2f&thumb=Y,https://www.instagram.com/space_1257/,서울시문화공간,A
POI_6B7DF364,VIVIAN CHOI GALLERY,37.526439666489,127.049680036198,서울 강남구 도산대로85길 30 2층 209,미술관/갤러리,,,강남구,https://culture.seoul.go.kr/cmmn/file/getImage.do?atchFileId=fd35c3538d554c0e924a870c594d87da&thumb=Y,https://vivianchoi.imweb.me,서울시문화공간,A
POI_0992103E,WWW SPACE,37.555283006064,126.90378758952,서울특별시 마포구 망원로6길 37 지하1층,미술관/갤러리,,,마포구,https://culture.seoul.go.kr/cmmn/file/getImage.do?atchFileId=91f3ea6debcc49a28a2a489e71c8fcbe&thumb=Y,https://www.wwwspace.kr/,서울시문화공간,A
POI_1B4D9505,YK Presents,37.5668979260337,127.006807513903,서울특별시 중구 을지로43길 13,미술관/갤러리,,,중구,https://culture.seoul.go.kr/cmmn/file/getImage.do?atchFileId=22ea3f09af6742c3af130608c89bd939&thumb=Y,http://www.ykpresents.com,서울시문화공간,A
POI_43CD5E8A,cync,37.5986042688311,126.937285356594,서울특별시 은평구 통일로 577,미술관/갤러리,,,은평구,https://culture.seoul.go.kr/cmmn/file/getImage.do?atchFileId=b338a1348c5d4a43bc91b8465fa40cbf&thumb=Y,https://www.cync.art/,서울시문화공간,A
POI_063E5B4C,koldsleep 콜드슬립,37.6456350743682,127.010445714014,서울 강북구 인수봉로 301 1층,기타,,,강북구,https://culture.seoul.go.kr/cmmn/file/getImage.do?atchFileId=107e380dace44f92ae92a111317eaa2e&thumb=Y,https://www.koldsleep.com/,서울시문화공간,A
POI_9EEB30EA,가꿀고개,37.4880556,126.9875,,지명,,,,,,서울역사편찬원,C
POI_6A716F0E,가나아트센터,37.6122447138613,126.975182153045,서울특별시 종로구 평창30길 28,미술관/갤러리,,,종로구,https://culture.seoul.go.kr/cmmn/file/getImage.do?atchFileId=15b62510f77a498b95dc90c166ca2b8b&thumb=Y,http://www.ganaart.com/,서울시문화공간,A
POI_1E4A63A1,가녈봉,37.5025895,126.8450803,,지명,,,,,,서울역사편찬원,C
POI_C8B9F954,가누배,37.4376075,127.0578543,,지명,,,,,,서울역사편찬원,C
POI_51B6CE91,가는골,37.6859427,127.0364058,,지명,,,,,,서울역사편찬원,C
POI_91D053AA,가는굴,37.465423,126.969919,,지명,,,,,,서울역사편찬원,C
POI_61D0EE70,가능(佳陵),37.748362,127.044251,,지명,,,,,,서울역사편찬원,B
POI_D26AE698,가락교(可樂橋),37.5020632,127.1280374,,지명,,,,,,서울역사편찬원,C
POI_6F0BA425,가락동,37.4956865,127.1184047,,지명,,,,,,서울역사편찬원,A
POI_7CEBEAE3,가락동(可樂洞),37.4955738,127.1217631,,지명,,,,,,서울역사편찬원,A
POI_34726823,가락로(可樂路),37.503340,127.113226,,지명,,,,,,서울역사편찬원,C
POI_81B0932F,가락리(可樂里),37.4956865,127.1184047,,지명,,,,,,서울역사편찬원,A
POI_59AA6002,가락보도육교,37.4991705,127.117583,,지명,,,,,,서울역사편찬원,C
POI_72C1FB0A,가락본동(可樂本洞),37.4955738,127.1217631,,지명,,,,,,서울역사편찬원,A
POI_E9C83C3B,가락시장(可樂市場),37.49222,127.117692,,지명,,,,,,서울역사편찬원,A
POI_691FBC56,가락제1동(可樂第1洞),37.4963954,127.1099851,,지명,,,,,,서울역사편찬원,A
POI_1E384EBE,가락제2동(可樂第2洞),37.4986569,127.1266236,,지명,,,,,,서울역사편찬원,A
POI_64C39655,가락중학교앞보도육교,37.5023454,127.1186748,,지명,,,,,,서울역사편찬원,C
POI_E53EC8B6,가락지하차도,37.4956865,127.1184047,,지명,,,,,,서울역사편찬원,C
POI_33832B22,가람화랑,37.5742827945118,126.985613628841,서울특별시 종로구 인사동10길 11,미술관/갤러리,,,종로구,https://culture.seoul.go.kr/cmmn/file/getImage.do?atchFileId=bffc7c7c0eb74673980df6969ff0f329&thumb=Y,http://www.garamgallery.co.kr/,서울시문화공간,A
POI_0BA6EE9D,가래여울,37.5772869,127.1682284,,지명,,,,,,서울역사편찬원,A
POI_47796334,가려울,37.5772869,127.1682284,,지명,,,,,,서울역사편찬원,A
POI_9EB0151F,가로공원길,37.5373664,126.8386739,,지명,,,,,,서울역사편찬원,C
POI_286C65D3,가루개,37.621541,126.913578,,지명,,,,,,서울역사편찬원,A
POI_7992A413,가루게,37.621541,126.913578,,지명,,,,,,서울역사편찬원,A
POI_3DCF5E2A,가루산,37.5426256,126.9984717,,지명,,,,,,서울역사편찬원,C
POI_1038A0DE,가리봉(加里峰),37.48144,126.882652,,지명,,,,,,서울역사편찬원,B
POI_BAC4C8BE,가리봉1리(加里峰1里),37.4860541,126.8815764,,지명,,,,,,서울역사편찬원,B
POI_3C9662D0,가리봉2동앞보도육교,37.4864318,126.8825644,,지명,,,,,,서울역사편찬원,C
POI_F749A9B0,가리봉2리(加里峰2里),37.4858759,126.8822221,,지명,,,,,,서울역사편찬원,B
POI_929FA56E,가리봉3리(加里峰3里),37.4858759,126.8822221,,지명,,,,,,서울역사편찬원,B
POI_8E008305,가리봉동(加里峰洞),37.4824503,126.8897691,,지명,,,,,,서울역사편찬원,A
POI_234096E8,가리봉리(加里峰里),37.4826987,126.888039,,지명,,,,,,서울역사편찬원,A
POI_B2F7BAA8,가리봉제1동(加里峰第1洞),37.4826987,126.888039,,지명,,,,,,서울역사편찬원,A
POI_4B752C80,가리봉제2동(加里峰第2洞),37.4826987,126.888039,,지명,,,,,,서울역사편찬원,A
POI_AAE5C1D8,가리봉제3동(加里峰第3洞),37.4768498,126.891786,,지명,,,,,,서울역사편찬원,A
POI_C86F234F,가리봉철도고가차도,37.4826987,126.888039,,지명,,,,,,서울역사편찬원,C
POI_E90A3613,가린열,37.497907,126.856511,,지명,,,,,,서울역사편찬원,A
POI_041B90AF,가린열내깔,37.4926635,126.8652527,,지명,,,,,,서울역사편찬원,C
POI_B21B226B,가린열다리,37.4926635,126.8652527,,지명,,,,,,서울역사편찬원,A
POI_37E925E7,가린열앞벌,37.4926635,126.8652527,,지명,,,,,,서울역사편찬원,C
POI_0051A465,가마고지,37.4942566,126.8846869,,지명,,,,,,서울역사편찬원,A
POI_1030AE00,가마골,37.542285,126.9430588,,지명,,,,,,서울역사편찬원,C
POI_3B015CFF,가마꿀,37.5060633,126.9136167,,지명,,,,,,서울역사편찬원,C
POI_759CCEC7,가마니촌,37.493513,126.9670472,,지명,,,,,,서울역사편찬원,A
POI_90B6145E,가마동(加麻洞),37.5678802,126.8510787,,지명,,,,,,서울역사편찬원,C
POI_23F1D6AD,가마리(加麻里),37.5678802,126.8510787,,지명,,,,,,서울역사편찬원,A
POI_2257728E,가마바위,37.665072,127.0894129,,지명,,,,,,서울역사편찬원,C
POI_8829535F,가마산고가차도,37.492931,126.8827587,,지명,,,,,,서울역사편찬원,A
POI_586EC5DB,가마산길,37.494720,126.887901,,지명,,,,,,서울역사편찬원,C
POI_5A15D510,가마산지하차도,37.4882371,126.8804535,,지명,,,,,,서울역사편찬원,A
POI_E388BA4B,가막마을,37.5350595,126.9051328,,지명,,,,,,서울역사편찬원,A
POI_553A4FD3,가막재,37.5055033,126.962349,,지명,,,,,,서울역사편찬원,A
POI_645926D3,가맛골,37.539666,126.941276,,지명,,,,,,서울역사편찬원,A
POI_8BC4B9FD,가맛굴,37.5975499,126.9624425,,지명,,,,,,서울역사편찬원,A
POI_4BB3D66B,가며기,37.688702,127.039981,,지명,,,,,,서울역사편찬원,C
POI_74B3C882,가무리,37.4968195,126.8858694,,지명,,,,,,서울역사편찬원,C
POI_53BE6C67,가산(假山),37.568290,127.005337,,지명,,,,,,서울역사편찬원,C
POI_A628F801,가산(駕山),37.5381231,126.9307844,,지명,,,,,,서울역사편찬원,A
POI_3F63CE0E,가산동(加山洞),37.4768498,126.891786,,지명,,,,,,서울역사편찬원,A
POI_27605557,가산디지털단지,37.48144,126.882652,,지명,,,,,,서울역사편찬원,A
POI_62CEFC92,가살피,37.670374,127.038867,,지명,,,,,,서울역사편찬원,B
POI_9BE622A3,가시내꿀,37.4659338,127.0179442,,지명,,,,,,서울역사편찬원,A
POI_87D1745C,가시당굴,37.6383275,127.0073721,,지명,,,,,,서울역사편찬원,C
POI_0219A595,가양길,37.579596,126.875144,,지명,,,,,,서울역사편찬원,C
POI_86586540,가양대교(加陽大橋),37.5693231,126.8609947,,지명,,,,,,서울역사편찬원,A
POI_679EC770,가양동(加陽洞),37.5678802,126.8510787,,지명,,,,,,서울역사편찬원,A
POI_9210CC35,가양리(加陽里),37.5678802,126.8510787,,지명,,,,,,서울역사편찬원,A
POI_B2C70921,가양제1동(加陽第1洞),37.5694487,126.8447047,,지명,,,,,,서울역사편찬원,A
POI_CFE3EF73,가양제2동(加陽第2洞),37.5673658,126.8512874,,지명,,,,,,서울역사편찬원,A
POI_D143734A,가양제3동(加陽第3洞),37.5610254,126.8605161,,지명,,,,,,서울역사편찬원,A
POI_CCED538F,가양지하보도,37.5759742,126.8409036,,지명,,,,,,서울역사편찬원,B
POI_711371C7,가양지하차도,37.5646689,126.8574375,,지명,,,,,,서울역사편찬원,C
POI_5EA5D9C8,가오교(加五橋),37.641452,127.016896,,지명,,,,,,서울역사편찬원,B
POI_0239796B,가오리(加五里),37.640793,127.016930,,지명,,,,,,서울역사편찬원,B
POI_C031DC4C,가오리계(加五里契),37.649529,127.0137147,,지명,,,,,,서울역사편찬원,C
POI_C533D595,가오리길,37.642178,127.021741,,지명,,,,,,서울역사편찬원,C
POI_F2530F2B,가오천(加梧川),37.6436096,127.0250461,,지명,,,,,,서울역사편찬원,C
POI_E96AF972,가운데고개,37.5389594,126.9491776,,지명,,,,,,서울역사편찬원,C
POI_3E135ED8,가운데골짜기,37.5491616,126.9472617,,지명,,,,,,서울역사편찬원,C
POI_8D2C2D98,가운데다방골,37.567909,126.9811904,,지명,,,,,,서울역사편찬원,A
POI_DB447AAE,가운데마을,37.517875,126.906034,,지명,,,,,,서울역사편찬원,A
POI_2F65EC64,가운데말,37.4984934,127.1527443,,지명,,,,,,서울역사편찬원,A
POI_B25AEB66,가운데벌리,37.629038,127.0367452,,지명,,,,,,서울역사편찬원,A
POI_08F93C65,가운데우물,37.543474,126.7979428,,지명,,,,,,서울역사편찬원,C
POI_CEAC1D03,가운데초리우물,37.5647524,126.9681112,,지명,,,,,,서울역사편찬원,C
POI_2EE7C061,가운데피마병문,37.569935,126.993263,,지명,,,,,,서울역사편찬원,C
POI_5F0ABB3E,가운뎃골,37.485622,126.9723172,,지명,,,,,,서울역사편찬원,C
POI_BDE07363,가운뎃말,37.4808353,126.8398192,,지명,,,,,,서울역사편찬원,A
POI_02A327A5,가을두(加乙頭),37.550548,126.906048,,지명,,,,,,서울역사편찬원,B
POI_85027CB3,가자우물,37.483370,127.025949,,지명,,,,,,서울역사편찬원,C
POI_6F3BEEC1,가재골,37.5638217,127.1582312,,지명,,,,,,서울역사편찬원,A
POI_C6589C41,가재동(佳才洞),37.6454467,127.0767578,,지명,,,,,,서울역사편찬원,B
POI_90623A32,가재우물,37.483370,127.025949,,지명,,,,,,서울역사편찬원,C
POI_4676621A,가재울,37.5787976,126.9111852,,지명,,,,,,서울역사편찬원,A
POI_18A73CB6,가잿물,37.5151795,126.8557093,,지명,,,,,,서울역사편찬원,C
POI_51F0F60A,가정(嘉井),37.5723431,126.9976925,,지명,,,,,,서울역사편찬원,C
POI_BD18CF58,가정동(嘉井洞),37.5723431,126.9976925,,지명,,,,,,서울역사편찬원,A
POI_40959433,가정동약수(可亭洞藥水),37.5820119,126.9864646,,지명,,,,,,서울역사편찬원,C
POI_180279A7,가좌1계(加佐1契),37.568798,126.914961,,지명,,,,,,서울역사편찬원,C
POI_F6D13B2B,가좌2계(加佐2契),37.5756218,126.9194417,,지명,,,,,,서울역사편찬원,C
POI_DD4B9FB5,가좌동(加佐洞),37.577177,126.915051,,지명,,,,,,서울역사편찬원,B
POI_80089E18,가좌동1계(加佐洞1契),37.5740091,126.9198012,,지명,,,,,,서울역사편찬원,C
POI_EF5C6E75,가좌동2계(加佐洞2契),37.574273,126.9101854,,지명,,,,,,서울역사편찬원,C
POI_A2FE8A5C,가좌동계(加佐洞契),37.5740091,126.9198012,,지명,,,,,,서울역사편찬원,C
POI_74AE80EE,가좌로(加佐路),37.590576,126.916587,,지명,,,,,,서울역사편찬원,C
POI_BCDE351D,가좌리(加佐里),37.5787976,126.9111852,,지명,,,,,,서울역사편찬원,B
POI_199F2537,가좌역앞보도육교,37.5691464,126.9155114,,지명,,,,,,서울역사편찬원,B
POI_6CA03402,가천동,37.485889,127.019671,,지명,,,,,,서울역사편찬원,B
POI_04E367F4,가추개,37.475475,126.970885,,지명,,,,,,서울역사편찬원,C
POI_96FC33F8,가칠목(架七木),37.5124484,126.9536572,,지명,,,,,,서울역사편찬원,A
POI_0FE0033D,가톨릭대학교 전례박물관,37.58500811051911,127.00464760285244,서울특별시 종로구 창경궁로 296-12 카톨릭대학교,박물관/기념관,,,종로구,https://culture.seoul.go.kr/cmmn/file/getImage.do?atchFileId=ATH_SPC_000000000000000000100496&thumb=Y,http://museum.catholic.ac.kr,서울시문화공간,A
POI_ED3016D3,가회동(嘉會洞),37.5800055,126.984774,,지명,,,,,,서울역사편찬원,A
POI_B32EFBC0,가회로(嘉會路),37.582160,126.985077,,지명,,,,,,서울역사편찬원,C
POI_0D0754B9,가회민화박물관,37.5815093512458,126.985229239519,서울특별시 종로구 북촌로 52,박물관/기념관,,,종로구,https://culture.seoul.go.kr/cmmn/file/getImage.do?atchFileId=51f4827d5d774ba68ea360504a05609e&thumb=Y,http://www.gahoemuseum.org/new/,서울시문화공간,A
POI_DFB5BC08,가회방(嘉會坊),37.5820119,126.9864646,,지명,,,,,,서울역사편찬원,C
POI_D289FC03,가회방계(嘉會坊契),37.5820119,126.9864646,,지명,,,,,,서울역사편찬원,C
POI_B9925CB0,가회정(嘉會町),37.5820119,126.9864646,,지명,,,,,,서울역사편찬원,A
POI_F8B82EB3,각만이,37.4912855,126.8896338,,지명,,,,,,서울역사편찬원,A
POI_A5CAA404,각만이고개,37.4915702,126.889147,,지명,,,,,,서울역사편찬원,C
POI_8D28281F,각만이동산,37.5001225,126.883038,,지명,,,,,,서울역사편찬원,C
POI_EDA1CBFB,각시바위,37.4463897,126.9084869,,지명,,,,,,서울역사편찬원,C
POI_2C4B7A12,각심마을,37.6341057,127.0512947,,지명,,,,,,서울역사편찬원,A
POI_C1346596,각심절,37.6341057,127.0512947,,지명,,,,,,서울역사편찬원,A
POI_CC305D5D,간곡(間谷),37.5805601,126.9724741,,지명,,,,,,서울역사편찬원,A
POI_9AB04589,간낫굴,37.5490445,127.1508229,,지명,,,,,,서울역사편찬원,A
POI_2AB8ED6A,간당말,37.619649,127.021013,,지명,,,,,,서울역사편찬원,B
POI_7B51E438,간대마을,37.6151872,127.0498879,,지명,,,,,,서울역사편찬원,A
POI_AD273799,간댓말,37.563544,127.0888304,,지명,,,,,,서울역사편찬원,A
POI_6883DDFE,간데고개,37.5383818,126.9496084,,지명,,,,,,서울역사편찬원,C
POI_06857552,간데꿀,37.5244624,126.9951449,,지명,,,,,,서울역사편찬원,A
POI_B1D6F085,간데마을,37.516495,127.010995,,지명,,,,,,서울역사편찬원,A
POI_D1AD57FA,간데말,37.516495,127.010995,,지명,,,,,,서울역사편찬원,A
POI_BB2F6FD1,간뎃굴,37.5385051,126.9925224,,지명,,,,,,서울역사편찬원,A
POI_EADF165D,간뎃말,37.5716314,126.9061564,,지명,,,,,,서울역사편찬원,A
POI_2CBE30B6,간동(簡洞),37.5625848,126.9707144,,지명,,,,,,서울역사편찬원,A
POI_A475F386,간동(諫洞),37.5772618,126.9804002,,지명,,,,,,서울역사편찬원,A
POI_73AB28C5,간동(間洞),37.5805601,126.9724741,,지명,,,,,,서울역사편찬원,A
POI_58C26F2C,간된말,37.619649,127.021013,,지명,,,,,,서울역사편찬원,B
POI_A47C6266,간리(間里),37.5656328,126.787786,,지명,,,,,,서울역사편찬원,A
POI_20316A72,간뫼,37.4429385,126.9610024,,지명,,,,,,서울역사편찬원,A
POI_A756C8C5,간석(間石),37.464701,126.693423,,지명,,,,,,서울역사편찬원,A
POI_515F02C9,간석오거리(間石五距離),37.466907,126.707898,,지명,,,,,,서울역사편찬원,A
POI_5E2873D5,간송미술관,37.5944624355121,126.996238532295,서울특별시 성북구 성북로 102-11,미술관/갤러리,,,성북구,https://culture.seoul.go.kr/cmmn/file/getImage.do?atchFileId=a717180c742343b4887b32e9e3cea670&thumb=Y,http://kansong.org/,서울시문화공간,A
POI_D4260623,간송옛집,37.6648929195749,127.028186809295,서울특별시 도봉구 시루봉로 149-18,박물관/기념관,,,도봉구,https://culture.seoul.go.kr/cmmn/file/getImage.do?atchFileId=98594c2c36764f1c8d7b9cdc2312e8b0&thumb=Y,http://www.kansonghouse.kr/,서울시문화공간,A
POI_9B845734,간열다리,37.4926635,126.8652527,,지명,,,,,,서울역사편찬원,A
POI_C7660AAF,간정(諫町),37.5772618,126.9804002,,지명,,,,,,서울역사편찬원,A
POI_B1FA87CF,간촌(間村),37.6729909,127.0703498,,지명,,,,,,서울역사편찬원,A
POI_B4B72978,간촌리(間村里),37.6729909,127.0703498,,지명,,,,,,서울역사편찬원,A
POI_89279F51,갈고개(葛古介),37.621541,126.913578,,지명,,,,,,서울역사편찬원,A
POI_97A1ED53,갈고개계(葛古介契),37.6191183,126.9211348,,지명,,,,,,서울역사편찬원,C
POI_1A9311A9,갈골,37.496620,126.821244,,지명,,,,,,서울역사편찬원,A
POI_F1212E14,갈구동(葛龜洞),37.6117225,126.9103637,,지명,,,,,,서울역사편찬원,C
POI_A7C7D505,갈길마재,37.5870737,126.9489545,,지명,,,,,,서울역사편찬원,A
POI_66C1A3E0,갈꿀,37.5004389,126.8285296!,,지명,,,,,,서울역사편찬원,C
POI_D8BC9388,갈말,37.5542807,126.7970146,,지명,,,,,,서울역사편찬원,A
POI_B839B2C0,갈말골짜기,37.4810886,126.8236073,,지명,,,,,,서울역사편찬원,C
POI_CA0D66D8,갈불고개,37.5586545,126.7944739,,지명,,,,,,서울역사편찬원,C
POI_E7C8ACCB,갈산(葛山),37.517068,126.721561,,지명,,,,,,서울역사편찬원,A
POI_644DBF3C,갈산문화예술센터,37.5107624370301,126.87020687315,서울특별시 양천구 목동남로 106,기타,,,양천구,https://culture.seoul.go.kr/cmmn/file/getImage.do?atchFileId=0ec10c0f679645a4b2d677d5970d1873&thumb=Y,https://www.yangcheon.go.kr/site/yangcheon/05/10504150100002023031503.jsp,서울시문화공간,A
POI_82F75242,갈어리계(葛於里契),37.548659,126.9781385,,지명,,,,,,서울역사편찬원,C
POI_2351BA75,갈울,37.674914,127.0595938,,지명,,,,,,서울역사편찬원,A
POI_8BCE278E,갈월(葛月),37.674914,127.0595938,,지명,,,,,,서울역사편찬원,A
POI_5BC07B12,갈월길,37.674977,127.057628,,지명,,,,,,서울역사편찬원,C
POI_B92E90E0,갈월동(葛月洞), 37.5454036,126.9723606,,지명,,,,,,서울역사편찬원,A
POI_321CECC6,갈월동보도육교,37.5435884,126.9722357,,지명,,,,,,서울역사편찬원,C
POI_960FA2E3,갈월리(葛月里),37.5520713,126.9724315,,지명,,,,,,서울역사편찬원,A
POI_97FC0E62,갈월이골목,37.546437,126.974886,,지명,,,,,,서울역사편찬원,C
POI_E1C531DD,갈월지하차도,37.544979,126.9716774,,지명,,,,,,서울역사편찬원,A
POI_B3563A4F,갈천(葛川),37.4792903,126.8739799,,지명,,,,,,서울역사편찬원,A
POI_304C6B87,갈촌(葛村),37.5542807,126.7970146,,지명,,,,,,서울역사편찬원,A
POI_A2FD9FC4,갈탄,37.4926635,126.8652527,,지명,,,,,,서울역사편찬원,A
POI_F5D4282B,갈탄(葛灘),37.497907,126.856511,,지명,,,,,,서울역사편찬원,A
POI_4D068361,갈탄봉(葛灘峰),37.507344,126.856024,,지명,,,,,,서울역사편찬원,A
POI_8C326A08,갈현(葛峴),37.621541,126.913578,,지명,,,,,,서울역사편찬원,A
POI_4E2775B8,갈현계(葛峴契),37.6191183,126.9211348,,지명,,,,,,서울역사편찬원,C
POI_9A321BEA,갈현동(葛峴洞),37.621541,126.913578,,지명,,,,,,서울역사편찬원,A
POI_3B3504F3,갈현동길,37.612860,126.911476,,지명,,,,,,서울역사편찬원,C
POI_2FCF3677,갈현리(葛峴里),37.621541,126.913578,,지명,,,,,,서울역사편찬원,A
POI_4A2292F0,갈현제1동(葛峴第1洞),37.6236378,126.9166961,,지명,,,,,,서울역사편찬원,A
POI_A747D6E0,갈현제2동(葛峴第2洞),37.618528,126.9159129,,지명,,,,,,서울역사편찬원,A
POI_57D19623,감나무골,37.4659338,127.0179442,,지명,,,,,,서울역사편찬원,A
POI_7C56F1D7,감나무꿀,37.474668,126.925385,,지명,,,,,,서울역사편찬원,B
POI_BEF693EC,감나무밭,37.546106,126.954436,,지명,,,,,,서울역사편찬원,B
POI_17D3430B,감나뭇골,37.474668,126.925385,,지명,,,,,,서울역사편찬원,B
POI_296ACE38,감무골,37.546106,126.954436,,지명,,,,,,서울역사편찬원,B
POI_97A58A13,감부벌,37.542285,126.9430588,,지명,,,,,,서울역사편찬원,C
POI_B1854B90,감영동(監營洞),37.5718672,126.9619709,,지명,,,,,,서울역사편찬원,A
POI_46E79992,감은돌,37.5422226,126.9343761,,지명,,,,,,서울역사편찬원,A
POI_B5B8D8CD,감은돌동네,37.5422226,126.9343761,,지명,,,,,,서울역사편찬원,A
POI_563BA5FC,감장우물골,37.5613475,127.0005628,,지명,,,,,,서울역사편찬원,A
POI_9B152B99,감정(甘井),37.5755613,126.997537,,지명,,,,,,서울역사편찬원,C
POI_B484F40B,감정굴마을,37.612885,127.028060,,지명,,,,,,서울역사편찬원,A
POI_5B75D886,감정동(甘井洞),37.5755613,126.997537,,지명,,,,,,서울역사편찬원,A
POI_C4D7659A,감정우물,37.5613475,127.0005628,,지명,,,,,,서울역사편찬원,C
POI_54578185,감정우물골,37.5613475,127.0005628,,지명,,,,,,서울역사편찬원,A
POI_F09423DB,감찬로(邯贊路),37.497617,126.919094,,지명,,,,,,서울역사편찬원,C
POI_0E93B190,감천1교,37.515381,127.137912,,지명,,,,,,서울역사편찬원,A
POI_D725C71D,감천2교,37.515955,127.134427,,지명,,,,,,서울역사편찬원,A
POI_A8814519,감천3교,37.515682,127.135842,,지명,,,,,,서울역사편찬원,A
POI_DCD2B3DF,감투바우,37.5426256,126.9984717,,지명,,,,,,서울역사편찬원,C
POI_2108C7A8,감투바위,37.5757557,126.9676092,,지명,,,,,,서울역사편찬원,A
POI_D6E12811,갑동(甲洞),37.567734,126.991527,,지명,,,,,,서울역사편찬원,B
POI_251F8A5B,갓고개,37.5759058,126.8135931,,지명,,,,,,서울역사편찬원,C
POI_799F2793,갓굴,37.6862149,127.0409622,,지명,,,,,,서울역사편찬원,A
POI_A2342C46,갓동,37.567734,126.991527,,지명,,,,,,서울역사편찬원,A
POI_420CB468,갓동네,37.567734,126.991527,,지명,,,,,,서울역사편찬원,B
POI_4D630FDE,갓모배,37.4376075,127.0578543,,지명,,,,,,서울역사편찬원,A
POI_BFD1D965,갓모우물,37.5470548,126.8196088,,지명,,,,,,서울역사편찬원,C
POI_D65906A1,갓뫼,37.4429385,126.9610024,,지명,,,,,,서울역사편찬원,A
POI_9496A41F,갓바위,37.5957301,127.1014505,,지명,,,,,,서울역사편찬원,A
POI_DF1B3781,갓바위마을,37.5957301,127.1014505,,지명,,,,,,서울역사편찬원,A
POI_885F6ECA,갓방고개,37.5389116,126.9398011,,지명,,,,,,서울역사편찬원,A
POI_328D313A,갓방우물,37.5678182,126.9929232,,지명,,,,,,서울역사편찬원,C
POI_1E0C0F84,갓방우물골,37.567081,126.992332,,지명,,,,,,서울역사편찬원,B
POI_A5CDD0C6,갓배모탱이,37.4709155,127.0246714,,지명,,,,,,서울역사편찬원,C
POI_48DA0A62,갓우물,37.5678182,126.9929232,,지명,,,,,,서울역사편찬원,C
POI_ED3043A3,갓우물골,37.567081,126.992332,,지명,,,,,,서울역사편찬원,B
POI_6734299D,갓전골,37.569721,126.988541,,지명,,,,,,서울역사편찬원,B
POI_EEECF823,갓전동네,37.567734,126.991527,,지명,,,,,,서울역사편찬원,B
POI_EAC3BB38,갓전마을,37.569721,126.988541,,지명,,,,,,서울역사편찬원,B
POI_4982623F,강기정(岡崎町),37.5454036,126.9723606,,지명,,,,,,서울역사편찬원,A
POI_EC940362,강께밭,37.516637,126.891505,,지명,,,,,,서울역사편찬원,A
POI_C662CD02,강꼴,37.5394749,127.0463313,,지명,,,,,,서울역사편찬원,A
POI_BD9BB69B,강남(江南),37.497952,127.027619,,지명,,,,,,서울역사편찬원,A
POI_14AA856E,강남1로,37.528447,127.107714,,지명,,,,,,서울역사편찬원,C
POI_4D49C8D5,강남2로,37.529609,127.047477,,지명,,,,,,서울역사편찬원,C
POI_FEF313A6,강남3로,37.510860,126.999697,,지명,,,,,,서울역사편찬원,C
POI_76C9B14F,강남4로,37.517486,126.944056,,지명,,,,,,서울역사편찬원,C
POI_5BC2155B,강남5로,37.549140,126.886616,,지명,,,,,,서울역사편찬원,C
POI_336E4277,강남구립 개포하늘꿈도서관,37.4906692944468,127.080356908422,서울특별시 강남구 개포로110길 54,도서관,,,강남구,https://culture.seoul.go.kr/cmmn/file/getImage.do?atchFileId=0fd59eb5bb974834b55fc4dbde2f51a9&thumb=Y,https://library.gangnam.go.kr/hnkklib,서울시문화공간,A
POI_CD452DFC,강남구립논현도서관,37.5172831299803,127.037204204847,서울 강남구 학동로43길 17 논현2문화센터 6층,도서관,,,강남구,https://culture.seoul.go.kr/cmmn/file/getImage.do?atchFileId=8f034e3cc8bb45a2ae9a4c22d463e279&thumb=Y,https://library.gangnam.go.kr/nhlib/index.do,서울시문화공간,A
POI_CA520B18,강남구립대치도서관,37.4996157705058,127.065915414443,서울 강남구 삼성로 212 은마아파트 복지상가 2층 215호,도서관,,,강남구,https://culture.seoul.go.kr/cmmn/file/getImage.do?atchFileId=187fdbc782e247309ac362056f4234f6&thumb=Y,https://library.gangnam.go.kr/dchlib/index.do,서울시문화공간,A
POI_3FEAEA8A,강남구립도곡정보문화도서관,37.4883103031337,127.038880370672,서울 강남구 도곡로18길 57 도곡정보문화도서관,도서관,,,강남구,https://culture.seoul.go.kr/cmmn/file/getImage.do?atchFileId=ATH_SPC_000000000000000000101166&thumb=Y,https://library.gangnam.go.kr/dogoklib/index.do,서울시문화공간,A
POI_6E846B02,강남구립못골도서관,37.47153792025,127.096582363421,서울특별시 강남구 자곡로 116,도서관,,,강남구,https://culture.seoul.go.kr/cmmn/file/getImage.do?atchFileId=ATH_SPC_000000000000000000101134&thumb=Y,https://library.gangnam.go.kr/mglib/index.do,서울시문화공간,A
POI_D013CAE6,강남구립못골한옥어린이도서관,37.4733061524019,127.099727862691,서울특별시 강남구 자곡로7길 3,도서관,,,강남구,https://culture.seoul.go.kr/cmmn/file/getImage.do?atchFileId=ATH_SPC_000000000000000000101172&thumb=Y,https://library.gangnam.go.kr/hchildlib/index.do,서울시문화공간,A
POI_8F0592FA,강남구립역삼도서관,37.4953732068069,127.033283840382,서울 강남구 역삼로7길 16 역삼1문화센터 5층,도서관,,,강남구,https://culture.seoul.go.kr/cmmn/file/getImage.do?atchFileId=39ca28478e864e659becb44b589f31b4&thumb=Y,https://library.gangnam.go.kr/yslib/index.do,서울시문화공간,A
POI_8714FDC9,강남구립역삼푸른솔도서관,37.496499181425,127.032028764698,서울특별시 강남구 테헤란로8길 36,도서관,,,강남구,https://culture.seoul.go.kr/cmmn/file/getImage.do?atchFileId=284aaea364274c219d580b40c3e899d0&thumb=Y,https://library.gangnam.go.kr/ysplib/index.do,서울시문화공간,A
POI_61B8B75F,강남구립열린도서관,37.4840224010593,127.084459720088,서울 강남구 일원로 115 삼성생명빌딩 B동 203호,도서관,,,강남구,https://culture.seoul.go.kr/cmmn/file/getImage.do?atchFileId=2872aa5c6243422ea3931b8cc463e3bc&thumb=Y,https://library.gangnam.go.kr/yllib,서울시문화공간,A
POI_4DF26669,강남구립정다운도서관,37.5190987146919,127.046440886765,서울특별시 강남구 학동로67길 11,도서관,,,강남구,https://culture.seoul.go.kr/cmmn/file/getImage.do?atchFileId=b7d6e818b27d448d86af706908da388e&thumb=Y,https://jdwlib.gangnam.go.kr/jdwlib/index.do,서울시문화공간,A
POI_C5A7AE18,강남구립즐거운도서관,37.499729738243,127.05784954077,서울 강남구 도곡로77길 23 대치4동주민센터,도서관,,,강남구,https://culture.seoul.go.kr/cmmn/file/getImage.do?atchFileId=4123386bc0cf4e5687c17a4bbe6ae8d4&thumb=Y,https://library.gangnam.go.kr/jgwlib/index.do,서울시문화공간,A
POI_D365E809,강남구립청담도서관,37.5250921105077,127.04929111534,서울 강남구 압구정로79길 26 청담동주민센터,도서관,,,강남구,https://culture.seoul.go.kr/cmmn/file/getImage.do?atchFileId=ATH_SPC_000000000000000000101169&thumb=Y,https://library.gangnam.go.kr/cdlib/index.do,서울시문화공간,A
POI_BD62AB50,강남구립행복한도서관,37.5023043321987,127.064187680006,서울 강남구 영동대로65길 24 대치2동주민센터 3층,도서관,,,강남구,https://culture.seoul.go.kr/cmmn/file/getImage.do?atchFileId=6c4106d5eec4454db9356278b3d05e89&thumb=Y,https://library.gangnam.go.kr/happylib/index.do,서울시문화공간,A
POI_F4B0ABD6,강남구민회관,37.4938499406221,127.06414979923,서울특별시 강남구 삼성로 154,기타,,,강남구,https://culture.seoul.go.kr/cmmn/file/getImage.do?atchFileId=ATH_SPC_000000000000000000100870&thumb=Y,https://www.gncity.or.kr/gncity/main/contents.do?menuNo=200139,서울시문화공간,A
POI_38AB38E2,강남구청(江南區廳),37.517473,127.0411685,,지명,,,,,,서울역사편찬원,A
POI_29605B59,강남대로(江南大路),37.493790,127.029550,,지명,,,,,,서울역사편찬원,C
POI_73648496,강남로(江南路),37.523197,127.059968,,지명,,,,,,서울역사편찬원,C
POI_5D933650,강남스포츠문화센터,37.48915345909661,127.10522596740412,서울특별시 강남구 밤고개로1길 52,기타,,,강남구,https://culture.seoul.go.kr/cmmn/file/getImage.do?atchFileId=ATH_SPC_000000000000000000100838&thumb=Y,https://www.gncity.or.kr/gncity/main/contents.do?menuNo=200138,서울시문화공간,A
POI_0212A6F9,강남시니어플라자,37.5097871620279,127.043218315638,서울특별시 강남구 봉은사로 332,기타,,,강남구,https://culture.seoul.go.kr/cmmn/file/getImage.do?atchFileId=6ab79d32ffa8414bbb4bf2edf681ceff&thumb=Y,https://www.gangnam.go.kr/office/seniorplaza,서울시문화공간,A
POI_DDA0C617,강남씨어터,37.4953732068069,127.033283840382,"서울특별시 강남구 역삼로7길 16, 3층",공연장,,,강남구,https://culture.seoul.go.kr/cmmn/file/getImage.do?atchFileId=dc84839d6e204285b3dd45cd80bf3f12&thumb=Y,http://www.gfac.kr,서울시문화공간,A
POI_813A669A,강남여중앞보도육교,37.5012492,127.116907,,지명,,,,,,서울역사편찬원,C
POI_9002AE59,강남중학교앞보도육교,37.5022844,126.9223505,,지명,,,,,,서울역사편찬원,C
POI_56F85BA3,강남터미널고가차도,37.5057129,127.0007981,,지명,,,,,,서울역사편찬원,C
POI_4676CC85,강남힐링센터 개포,37.4841428175435,127.065349831835,서울특별시 강남구 삼성로3길 39,기타,,,강남구,https://culture.seoul.go.kr/cmmn/file/getImage.do?atchFileId=b60e361028454881847ec275ccc71046&thumb=Y,https://www.gangnam.go.kr/healing/index.do,서울시문화공간,A
POI_294E3783,강남힐링센터(코엑스),37.51137783911759,127.0580407444569,서울특별시 강남구 테헤란로87길 46,기타,,,강남구,https://culture.seoul.go.kr/cmmn/file/getImage.do?atchFileId=fc4325c266a84d56b6fbabc2fc3e1b8d&thumb=Y,https://life.gangnam.go.kr/fmcs/261,서울시문화공간,A
POI_6F758C47,강동(江東),37.535911,127.132307,,지명,,,,,,서울역사편찬원,A
POI_A9725CED,강동구립성내도서관,37.5328454696729,127.133342998226,서울특별시 강동구 성안로 106-1,도서관,,,강동구,https://culture.seoul.go.kr/cmmn/file/getImage.do?atchFileId=8a2a0ac4729745a7a559ef29ff2922f8&thumb=Y,https://www.gdlibrary.or.kr/web/menu/10006/program/30002/dataStatus.do?siteCd=snlib,서울시문화공간,A
POI_A5D19FD1,강동구립암사도서관,37.5528330245657,127.133365473246,서울특별시 강동구 고덕로20길 42,도서관,,,강동구,https://culture.seoul.go.kr/cmmn/file/getImage.do?atchFileId=b3847e3d26314ea1b749f9be72f7ce77&thumb=Y,http://www.gdlibrary.or.kr/aslib/,서울시문화공간,A
POI_053DE58A,강동구립천호도서관,37.5405232247297,127.134081513483,"서울특별시 강동구 성안로31마길 1, 2층",도서관,,,강동구,https://culture.seoul.go.kr/cmmn/file/getImage.do?atchFileId=1eabfb43e1f34dac89c7e58e866b6bd9&thumb=Y,https://www.gdlibrary.or.kr/web/menu/10022/program/30002/dataStatus.do?siteCd=chlib,서울시문화공간,A
POI_01E7F7E8,강동구립해공도서관,37.5439476727563,127.125538378702,서울특별시 강동구 올림픽로 702,도서관,,,강동구,https://culture.seoul.go.kr/cmmn/file/getImage.do?atchFileId=c5eb38862f55485792208e4f8c2fac80&thumb=Y,https://www.gdlibrary.or.kr/web/menu/10010/program/30002/dataStatus.do?siteCd=hglib,서울시문화공간,A
POI_219D7A79,강동구민회관,37.5458583,127.1411875,서울특별시 강동구 상암로 168,기타,,,강동구,https://culture.seoul.go.kr/cmmn/file/getImage.do?atchFileId=174c6003463e4561b036f193902116fb&thumb=Y,https://www.igangdong.or.kr/page/ce/ce_0101.asp,서울시문화공간,A
POI_A8957EDA,강동구청(江東區廳),37.530518,127.120552,,지명,,,,,,서울역사편찬원,A
POI_25287F30,강동대교(江東大橋),37.577842,127.16134,,지명,,,,,,서울역사편찬원,A
POI_8589BF8D,강동대로(江東大路),37.522327,127.132201,,지명,,,,,,서울역사편찬원,C
POI_CF161177,강동아트센터,37.5512204558342,127.157342546961,서울 강동구 동남로 870 강동아트센터,문화예술회관,,,강동구,https://culture.seoul.go.kr/cmmn/file/getImage.do?atchFileId=fdff0b9210954260a9931096c1ccbefb&thumb=Y,https://www.gdfac.or.kr/,서울시문화공간,A
POI_0BD27EC2,강동어린이회관아이누리홀,37.5291630,127.122469,서울특별시 강동구 성내로6길 16 (성내동),공연장,,,강동구,https://culture.seoul.go.kr/cmmn/file/getImage.do?atchFileId=909c514987cd4a3ab0451b55f1ba30d8&thumb=Y,https://www.gdkids.or.kr:8443/front/user/main.do,서울시문화공간,A
POI_5DFE4CFD,강릉동(康陵洞),37.6321366,127.0914306,,지명,,,,,,서울역사편찬원,A
POI_35EF412D,강릉뒷굴,37.6435824,127.1063459,,지명,,,,,,서울역사편찬원,A
POI_5571ADA3,강매터(江梅―),37.5675265,127.1729313,,지명,,,,,,서울역사편찬원,A
POI_03E8B87A,강박굴(姜朴―),37.507773,126.916752,,지명,,,,,,서울역사편찬원,B
POI_DC2698F6,강변(江邊),37.535098,127.094695,,지명,,,,,,서울역사편찬원,A
POI_679B056B,강변(동서울터미널),37.535098,127.094695,,지명,,,,,,서울역사편찬원,A
POI_012C5BEE,강변1로(江邊1路),37.538579,127.100843,,지명,,,,,,서울역사편찬원,C
POI_D445AFAC,강변2로(江邊2路),37.530839,127.069689,,지명,,,,,,서울역사편찬원,C
POI_A2FA321D,강변3로(江邊3路),37.518582,126.993077,,지명,,,,,,서울역사편찬원,C
POI_D9F68679,강변4로(江邊4路),37.533667,126.945306,,지명,,,,,,서울역사편찬원,C
POI_5B79552C,강변5로(江邊5路),37.553572,126.898648,,지명,,,,,,서울역사편찬원,C
POI_07028A87,강변대로(江邊大路),37.522240,126.959885,,지명,,,,,,서울역사편찬원,C
POI_18FDD8C5,강변북로(江邊北路),37.521503,127.000186,,지명,,,,,,서울역사편찬원,C
POI_86B416A2,강변역길,37.537572,127.092470,,지명,,,,,,서울역사편찬원,C
POI_9ACD185E,강북문화예술회관,37.6409897866256,127.013878144422,서울특별시 강북구 삼각산로 85,문화예술회관,,,강북구,https://culture.seoul.go.kr/cmmn/file/getImage.do?atchFileId=ATH_SPC_000000000000000000100717&thumb=Y,https://www.gbcmc.or.kr/fmcs/25,서울시문화공간,A
POI_D8F3D871,강북문화정보도서관,37.6251153938762,127.036079668809,서울특별시 강북구 오현로 145,도서관,,,강북구,https://culture.seoul.go.kr/cmmn/file/getImage.do?atchFileId=d8383889eade4c82b93929f5c36e140b&thumb=Y,https://www.gblib.or.kr/gangbuk/,서울시문화공간,A
POI_247A636B,강북솔밭국악당,37.6546970306366,127.012710626694,서울 강북구 삼양로 579 화성빌딩 B01호,공연장,,,강북구,https://culture.seoul.go.kr/cmmn/file/getImage.do?atchFileId=0c98592833b54d5e852e8cb9dde32a1d&thumb=Y,https://blog.naver.com/kgtart,서울시문화공간,A
POI_104764DF,강북중학길,37.644469,127.026432,,지명,,,,,,서울역사편찬원,C
POI_0BBBEB05,강북청소년문화정보도서관,37.6230813586229,127.021555480923,서울 강북구 삼양로54길 68 강북청소년문화정보센터,도서관,,,강북구,https://culture.seoul.go.kr/cmmn/file/getImage.do?atchFileId=ATH_SPC_000000000000000000100775&thumb=Y,https://www.gblib.or.kr/youth/index.do,서울시문화공간,A
POI_00B690DD,강서구립길꽃어린이도서관,37.5787189637477,126.813657528897,서울특별시 강서구 금낭화로24길 5,도서관,,,강서구,https://culture.seoul.go.kr/cmmn/file/getImage.do?atchFileId=ATH_SPC_000000000000000000100802&thumb=Y,https://gilkkot.gangseo.seoul.kr/,서울시문화공간,A
POI_6E0A0E47,강서구민회관,37.5534364240863,126.843648918555,서울특별시 강서구 우장산로 66,기타,,,강서구,https://culture.seoul.go.kr/cmmn/file/getImage.do?atchFileId=ATH_SPC_000000000000000000100081&thumb=Y,https://www.gssi.or.kr/html/07010101,서울시문화공간,A
POI_1C932C80,강서로(江西路),37.553928,126.836768,,지명,,,,,,서울역사편찬원,C
POI_3B2AC37B,강서문화원,37.537543087798,126.837642139084,서울특별시 강서구 가로공원로 195,문화원,,,강서구,https://culture.seoul.go.kr/cmmn/file/getImage.do?atchFileId=fb81ad818e6f4232b26264a13aa26306&thumb=Y,http://www.kcc2000.or.kr,서울시문화공간,A
POI_97B8AB79,강서아트리움,37.537543087798,126.837642139084,서울특별시 강서구 가로공원로 195,문화예술회관,,,강서구,https://culture.seoul.go.kr/cmmn/file/getImage.do?atchFileId=dabcfffb9a1243579650eb8c0e99a95f&thumb=Y,https://culture.gangseo.seoul.kr/gsfc/main/contents.do?menuNo=800010,서울시문화공간,A
POI_7936572F,강서중학교앞보도육교,37.5503544,126.9552105,,지명,,,,,,서울역사편찬원,C
POI_5DAE02A2,강성샘,37.5546731,126.9251258,,지명,,,,,,서울역사편찬원,A
POI_BFC77769,강성샘이,37.5546731,126.9251258,,지명,,,,,,서울역사편찬원,A
POI_225A71BE,강심터,37.6798557,127.054931,,지명,,,,,,서울역사편찬원,C
POI_5325549B,강일동(江一洞),37.5650504,127.1738009,,지명,,,,,,서울역사편찬원,A
POI_AE7EC2A4,강일동길,37.552904,127.172405,,지명,,,,,,서울역사편찬원,C
POI_E267E56B,강자굴고개,37.5325468,126.9507037,,지명,,,,,,서울역사편찬원,C
POI_B2A829D6,강적곡(康迪谷),37.4971254,126.9424928,,지명,,,,,,서울역사편찬원,A
POI_E7E7B692,강적곡고개(康迪谷―),37.4963205,126.9419195,,지명,,,,,,서울역사편찬원,A
POI_0062F5D5,강적골,37.4987343,126.9440592,,지명,,,,,,서울역사편찬원,A
POI_6F114A34,강적골고개,37.4963205,126.9419195,,지명,,,,,,서울역사편찬원,A
POI_FF5FD6A1,강적굴고개,37.4963205,126.9419195,,지명,,,,,,서울역사편찬원,A
POI_4D8D8353,강정골(剛靖―),37.4987343,126.9440592,,지명,,,,,,서울역사편찬원,A
POI_362BF842,개건너,37.4922634,126.8273197,,지명,,,,,,서울역사편찬원,A
POI_C1DC45E2,개건너말,37.5375279,127.0051334,,지명,,,,,,서울역사편찬원,A
POI_DC1619E8,개구리바위,37.5919755,126.9441943,,지명,,,,,,서울역사편찬원,C
POI_28D55409,개대리(開垈里),37.5264285,126.8342266,,지명,,,,,,서울역사편찬원,A
POI_C8C6B6AC,개드락,37.4433203,127.0486321,,지명,,,,,,서울역사편찬원,C
POI_3A072993,개롱(開籠),37.49797,127.135085,,지명,,,,,,서울역사편찬원,A
POI_507476D8,개롱리(開籠里),37.5041934,127.1344585,,지명,,,,,,서울역사편찬원,A
POI_AC6E38B9,개막다리,37.5204018,126.9934138,,지명,,,,,,서울역사편찬원,C
POI_A327A721,개명교(開明橋),37.4815985,126.8499844,,지명,,,,,,서울역사편찬원,A
POI_A2DF879E,개무기바닥,37.5436099,127.0428194,,지명,,,,,,서울역사편찬원,B
POI_DBAD303A,개미마을,37.5736795,126.9626274,,지명,,,,,,서울역사편찬원,A
POI_EAB16294,개바위,37.552924,126.9502439,,지명,,,,,,서울역사편찬원,A
POI_E1D20D0D,개봉(開峰),37.494546,126.859157,,지명,,,,,,서울역사편찬원,A
POI_C080FF3E,개봉고가차도,37.494347,126.8561779,,지명,,,,,,서울역사편찬원,A
POI_68AE5AA6,개봉교,37.485732,126.856503,,지명,,,,,,서울역사편찬원,A
POI_3C986BB9,개봉도서관,37.4895280611996,126.857972181036,서울 구로구 개봉로16길 30-11 개봉초등학교 내,도서관,,,구로구,https://culture.seoul.go.kr/cmmn/file/getImage.do?atchFileId=ATH_SPC_000000000000000000101180&thumb=Y,https://lib.guro.go.kr/#/about/gulib/lib06,서울시문화공간,A
POI_7FEE9756,개봉동(開峰洞),37.4942409,126.8519326,,지명,,,,,,서울역사편찬원,A
POI_01908122,개봉로(開峰路),37.490774,126.855994,,지명,,,,,,서울역사편찬원,C
POI_57F1B650,개봉리(開峰里),37.4942409,126.8519326,,지명,,,,,,서울역사편찬원,A
POI_58F852E2,개봉본동(開峰本洞),37.4966989,126.8559033,,지명,,,,,,서울역사편찬원,B
POI_29316993,개봉제1동(開峰第1洞),37.500167,126.8510677,,지명,,,,,,서울역사편찬원,A
POI_1937E47B,개봉제2동(開峰第2洞),37.4908138,126.8565338,,지명,,,,,,서울역사편찬원,A
POI_010F43DB,개봉제3동(開峰第3洞),37.4859591,126.853845,,지명,,,,,,서울역사편찬원,A
POI_8E24B94B,개봉천,37.4905191,126.86209,,지명,,,,,,서울역사편찬원,A
POI_F45E417F,개봉철도고가차도,37.4956989,126.8506713,,지명,,,,,,서울역사편찬원,A
POI_E6B6B913,개봉초교앞보도육교,37.4899903,126.8561078,,지명,,,,,,서울역사편찬원,C
POI_218E67CE,개야현(開野峴),37.5578058,127.1310675,,지명,,,,,,서울역사편찬원,A
POI_58E11367,개우물,37.5723431,126.9976925,,지명,,,,,,서울역사편찬원,C
POI_00E410BB,개우물골,37.5723431,126.9976925,,지명,,,,,,서울역사편찬원,A
POI_16482875,개운산(開運山),37.5947601,127.024415,,지명,,,,,,서울역사편찬원,A
POI_E38C7B67,개울건강도서관,37.5259751797829,126.856602131412,서울특별시 양천구 중앙로52길 56,도서관,,,양천구,https://culture.seoul.go.kr/cmmn/file/getImage.do?atchFileId=b183468a906249d7b9c71875180e1491&thumb=Y,https://lib.yangcheon.or.kr/libgaeul/,서울시문화공간,A
POI_F5A932EC,개웅(開雄),37.4951309,126.8494612,,지명,,,,,,서울역사편찬원,A
POI_EDA88DA0,개웅개울,37.4905191,126.86209,,지명,,,,,,서울역사편찬원,A
POI_E289BC05,개웅교,37.483683,126.854257,,지명,,,,,,서울역사편찬원,A
POI_23C601A1,개웅산(開雄山),37.4884309,126.8463457,,지명,,,,,,서울역사편찬원,A
POI_BD9135E8,개웅앞벌,37.4903826,126.8506179,,지명,,,,,,서울역사편찬원,C
POI_7EA3B50B,개잘리,37.6454467,127.0767578,,지명,,,,,,서울역사편찬원,B
POI_ACB4386D,개정(盖井),37.5639874,127.0280247,,지명,,,,,,서울역사편찬원,C
POI_71EE9D6D,개정동(蓋井洞),37.560737,126.9696208,,지명,,,,,,서울역사편찬원,A
POI_BDCB0A61,개정동계(蓋井洞契),37.5736973,126.9806453,,지명,,,,,,서울역사편찬원,C
POI_6B38E6D1,개좆바위,37.5715365,126.9309364,,지명,,,,,,서울역사편찬원,C
POI_974FF7B6,개척지,37.4810886,126.8236073,,지명,,,,,,서울역사편찬원,A
POI_5F9CBD47,개척지마을,37.4810886,126.8236073,,지명,,,,,,서울역사편찬원,A
POI_A0201E7F,개천(開川),37.5691015,126.9786692,,지명,,,,,,서울역사편찬원,A
POI_68EF08FD,개천께,37.5700771,126.9652153,,지명,,,,,,서울역사편찬원,A
POI_AE8B5B74,개천삼거리,37.5436099,127.0428194,,지명,,,,,,서울역사편찬원,A
POI_05024AA2,개춧굴,37.5841679,126.9059643,,지명,,,,,,서울역사편찬원,C
POI_694DB3D9,개터리,37.5264285,126.8342266,,지명,,,,,,서울역사편찬원,A
POI_1093BFAB,개패,37.4802905,127.0626272,,지명,,,,,,서울역사편찬원,A
POI_60361877,개펄,37.4802905,127.0626272,,지명,,,,,,서울역사편찬원,A
POI_DC3A1EED,개포(開浦),37.4802905,127.0626272,,지명,,,,,,서울역사편찬원,A
POI_79A5C47A,개포길,37.488018,127.063254,,지명,,,,,,서울역사편찬원,C
POI_3F9B0A1F,개포동(開浦洞),37.4802905,127.0626272,,지명,,,,,,서울역사편찬원,A
POI_32D47ADD,개포동길,37.488018,127.063254,,지명,,,,,,서울역사편찬원,C
POI_8B254356,개포제1동(開浦第1洞),37.4826819,127.0555932,,지명,,,,,,서울역사편찬원,A
POI_8BD3D5FB,개포제2동(開浦第2洞),37.4897125,127.0685462,,지명,,,,,,서울역사편찬원,A
POI_A6896481,개포제3동(開浦第3洞),37.4921124,127.073664,,지명,,,,,,서울역사편찬원,A
POI_81B9EE30,개포제4동(開浦第4洞),37.4771211,127.0497773,,지명,,,,,,서울역사편찬원,A
POI_E5F04D7B,개포지하차도,37.4761029,127.0585198,,지명,,,,,,서울역사편찬원,A
POI_D57FB084,개화동,37.5871248,126.8035907,,지명,,,,,,서울역사편찬원,A
POI_891F6C79,개화동(開花洞),37.5871248,126.8035907,,지명,,,,,,서울역사편찬원,A
POI_B54FE4BC,개화동길,37.589325,126.801939,,지명,,,,,,서울역사편찬원,C
POI_2584619A,개화동다리,37.578921,126.799348,,지명,,,,,,서울역사편찬원,C
POI_E277C21C,개화로(開花路),37.584375,126.798804,,지명,,,,,,서울역사편찬원,C
POI_6D9F355F,개화리(開花里),37.5871248,126.8035907,,지명,,,,,,서울역사편찬원,A
POI_C94E7B0E,개화산(開花山),37.5827778,126.8038889,,지명,,,,,,서울역사편찬원,A
POI_15810DF2,개화입체교차시설,37.5817808,126.7986516,,지명,,,,,,서울역사편찬원,C
POI_7E7846D6,개화지하농로,37.5788991,126.800619,,지명,,,,,,서울역사편찬원,C
POI_98954CC4,개화지하차도,37.5678093,126.805153,,지명,,,,,,서울역사편찬원,A
POI_B86EC29A,개화천,37.4905191,126.86209,,지명,,,,,,서울역사편찬원,A
POI_EF34E144,갤러리 508,37.5249920319161,127.044705546448,서울특별시 강남구 도산대로67길 14,미술관/갤러리,,,강남구,https://culture.seoul.go.kr/cmmn/file/getImage.do?atchFileId=b7351452e75445f9bd5cb8fa6f6a8580&thumb=Y,https://www.gallery-508.com/,서울시문화공간,A
POI_8E407E15,갤러리 JJ,37.5232493093031,127.029158344853,서울특별시 강남구 압구정로30길 63,미술관/갤러리,,,강남구,https://culture.seoul.go.kr/cmmn/file/getImage.do?atchFileId=ATH_SPC_000000000000000000101459&thumb=Y,https://www.galleryjj.org,서울시문화공간,A
POI_EBBAC1F2,갤러리 가이아,37.5263596212575,127.044097726418,서울특별시 강남구 선릉로162길 43,미술관/갤러리,,,강남구,https://culture.seoul.go.kr/cmmn/file/getImage.do?atchFileId=eb7d7937321d4e58bab04dba4fde7756&thumb=Y,http://www.galerie-gaia.net/,서울시문화공간,A
POI_5637E325,갤러리 구루지,37.4971026873195,126.889549086694,서울특별시 구로구 가마산로25길 21,미술관/갤러리,,,구로구,https://culture.seoul.go.kr/cmmn/file/getImage.do?atchFileId=baa5825dbd88444f83dec7f322053f8b&thumb=Y,https://www.guroartsvalley.or.kr/user/overall/overallArt3.do,서울시문화공간,A
POI_1D13975B,갤러리 도올,37.5832322737028,126.981676992197,서울 종로구 삼청로 87 도올빌딩 2층,미술관/갤러리,,,종로구,https://culture.seoul.go.kr/cmmn/file/getImage.do?atchFileId=ATH_SPC_000000000000000000100479&thumb=Y,http://www.gallerydoll.com/,서울시문화공간,A
POI_BC2A8B6A,갤러리 라메르,37.5725819833564,126.984868085947,서울특별시 종로구 인사동5길 26 홍익빌딩,미술관/갤러리,,,종로구,https://culture.seoul.go.kr/cmmn/file/getImage.do?atchFileId=ATH_SPC_000000000000000000100468&thumb=Y,http://www.gallerylamer.com/,서울시문화공간,A
POI_E4291EF8,갤러리 룩스,37.5815965392578,126.967857491088,서울특별시 종로구 필운대로7길 12,미술관/갤러리,,,종로구,https://culture.seoul.go.kr/cmmn/file/getImage.do?atchFileId=ATH_SPC_000000000000000000100339&thumb=Y,http://www.gallerylux.net/,서울시문화공간,A
POI_43818AE1,갤러리 마롱,37.5870817484472,126.98275199004,서울특별시 종로구 북촌로 143-6,미술관/갤러리,,,종로구,https://culture.seoul.go.kr/cmmn/file/getImage.do?atchFileId=bcfc3d1d70b84150bbd212a34aeeb086&thumb=Y,https://www.gallerymarron.com/,서울시문화공간,A
POI_F0949FE1,갤러리 모나리자 산촌,37.57379444189,126.986257044732,서울특별시 종로구 인사동길 30-13,미술관/갤러리,,,종로구,https://culture.seoul.go.kr/cmmn/file/getImage.do?atchFileId=9af2f24d901b4f08ba0b35fcb6b1c745&thumb=Y,https://gallerysanchon.com/,서울시문화공간,A
POI_6C3D16D8,갤러리 무모,37.5027201885223,127.111026578851,서울특별시 송파구 가락로19길 5,미술관/갤러리,,,송파구,https://culture.seoul.go.kr/cmmn/file/getImage.do?atchFileId=2475cf4df50c4d5c8e7593b1b37f237a&thumb=Y,http://mumogallery.com/,서울시문화공간,A
POI_E1C730CC,갤러리 비선재,37.5357632637137,127.014278496667,서울특별시 용산구 유엔빌리지3길 54-14,미술관/갤러리,,,용산구,https://culture.seoul.go.kr/cmmn/file/getImage.do?atchFileId=148e1d904a5847c1aafe8b13aee35b3c&thumb=Y,https://www.bisunjae.com/,서울시문화공간,A
POI_57A9E4F7,갤러리 스페이스엘,37.4980121074519,126.996200741797,서울특별시 서초구 서래로5길 38,미술관/갤러리,,,서초구,https://culture.seoul.go.kr/cmmn/file/getImage.do?atchFileId=d6d2a663cca34bb4ae191e182c2c5533&thumb=Y,https://www.instagram.com/gallery_spacel,서울시문화공간,A
POI_1D76CC15,갤러리 신당,37.5659409687669,127.014790889728,서울 중구 퇴계로 387 충무아트센터,미술관/갤러리,,,중구,https://culture.seoul.go.kr/cmmn/file/getImage.do?atchFileId=535d9feba5d54f80bb633d39da84fcd6&thumb=Y,https://www.caci.or.kr/rent/space/JSVFazRqak55NFVRWFAzenFtMWJPa2hQMFNQcWdDdEc0U1dJVXpES1B4bFFpbUZ6NXYrRVBFajE3WGdWTlgzQmxSYQ==,서울시문화공간,A
POI_ADEE9FF0,갤러리 아르스 ,37.5223815311342,127.030670353749,서울특별시 강남구 도산대로35길 24-1,미술관/갤러리,,,강남구,https://culture.seoul.go.kr/cmmn/file/getImage.do?atchFileId=e9e4e5da639f40238664de8cf2c19623&thumb=Y,없음,서울시문화공간,A
POI_7C593476,갤러리 아미디 신촌,37.5586573877793,126.94249132259,서울 서대문구 신촌역로 21 2층 갤러리 아미디 신촌,미술관/갤러리,,,서대문구,https://culture.seoul.go.kr/cmmn/file/getImage.do?atchFileId=0bfa0c2e518a43e699d349e875800734&thumb=Y,https://www.gallery-amidi.com/,서울시문화공간,A
POI_774A9E4F,갤러리 안터 공간 눈빛,37.5739510958196,126.983889409627,서울특별시 종로구 인사동11길 16,미술관/갤러리,,,종로구,https://culture.seoul.go.kr/cmmn/file/getImage.do?atchFileId=59b03172b73046948985c1ef03be0302&thumb=Y,https://www.facebook.com/profile.php?id=61564889454106&sk=about,서울시문화공간,A
POI_3488FCA2,갤러리 인,37.5751406092104,126.926931783172,서울 서대문구 홍제천로 116 201호,미술관/갤러리,,,서대문구,https://culture.seoul.go.kr/cmmn/file/getImage.do?atchFileId=b7132a36b8604e71a0cbd25c85a4fd2f&thumb=Y,https://www.instagram.com/_innsinn_,서울시문화공간,A
POI_DD56A44C,갤러리 인덱스,37.5741966894963,126.984430460968,서울특별시 종로구 인사동길 45,미술관/갤러리,,,종로구,https://culture.seoul.go.kr/cmmn/file/getImage.do?atchFileId=d35ffbb59fed4eab949a2e1d5055a8f5&thumb=Y,http://www.galleryindex.co.kr,서울시문화공간,A
POI_F0E6745B,갤러리 조은,37.538032303187,127.000742583982,서울특별시 용산구 이태원로55가길 3,미술관/갤러리,,,용산구,https://culture.seoul.go.kr/cmmn/file/getImage.do?atchFileId=ATH_SPC_000000000000000000101113&thumb=Y,https://galleryjoeun.com/kor/main/,서울시문화공간,A
POI_4B6D7C8D,갤러리 플래닛,37.5275164514377,127.045900812708,서울특별시 강남구 압구정로71길 14,미술관/갤러리,,,강남구,https://culture.seoul.go.kr/cmmn/file/getImage.do?atchFileId=06b81f3668b54676be7689b960f47248&thumb=Y,http://galleryplanet.co.kr/ ,서울시문화공간,A
POI_0845A150,갤러리 허브,37.5614417528647,127.038394194396,서울 성동구 왕십리광장로 17 비트플렉스 4층 갤러리허브,미술관/갤러리,,,성동구,https://culture.seoul.go.kr/cmmn/file/getImage.do?atchFileId=d64575f39a344960b958f3fe2eb57665&thumb=Y,https://www.sdfac.or.kr/kor/sdfac/sub/contents.do?gotoMenuNo=04030000,서울시문화공간,A
POI_EA270336,갤러리 화이트다이아몬드,37.5208819816451,127.104421421949,서울 송파구 올림픽로37길 130 에이동 203호,미술관/갤러리,,,송파구,https://culture.seoul.go.kr/cmmn/file/getImage.do?atchFileId=405e82a8c47a4de3810f83e1e6b8afc7&thumb=Y,https://www.instagram.com/gallerywhitediamond,서울시문화공간,A
POI_AD41FB72,갤러리 히든플레이스,37.5584812115306,126.946249418096,"서울특별시 서대문구 이화여대2가길 24, 2층",미술관/갤러리,,,서대문구,https://culture.seoul.go.kr/cmmn/file/getImage.do?atchFileId=8e85fb7c5a11414bb62c35a2cb723472&thumb=Y,https://www.instagram.com/hiddenplace.kr,서울시문화공간,A
POI_84E6EDCF,갤러리240,37.5821766417247,126.998581997051,서울특별시 종로구 창경궁로 240-37,미술관/갤러리,,,종로구,https://culture.seoul.go.kr/cmmn/file/getImage.do?atchFileId=f52aaeb0bd40428ebec6dfd60897bb04&thumb=Y,https://gallery240.creatorlink.net/index#,서울시문화공간,A
POI_9AD7D1D8,갤러리99,37.5531134735776,126.923605730907,서울특별시 마포구 홍익로 5-1,미술관/갤러리,,,마포구,https://culture.seoul.go.kr/cmmn/file/getImage.do?atchFileId=d59c97b02a2844349b504da1249ac907&thumb=Y,https://www.instagram.com/gallery99_official/,서울시문화공간,A
POI_353F271A,갤러리K 역삼센터,37.4970121191651,127.03839465769,서울특별시 강남구 논현로 413,미술관/갤러리,,,강남구,https://culture.seoul.go.kr/cmmn/file/getImage.do?atchFileId=62a2dd39a03146578c12494b0882809d&thumb=Y,https://www.artnomics.co.kr/bbs/board.php?bo_table=exhibition,서울시문화공간,A
POI_0F398064,갤러리광화,37.5705293260846,126.976089119166,서울특별시 종로구 새문안로 103,미술관/갤러리,,,종로구,https://culture.seoul.go.kr/cmmn/file/getImage.do?atchFileId=b01c9300e79a47c39274c11c806ee8da&thumb=Y,http://www.gallerygwanghwa.co.kr/main/main.php,서울시문화공간,A
POI_03886F47,갤러리더씨,37.543149846744,126.958603008297,서울 용산구 임정로 35 2층,미술관/갤러리,,,용산구,https://culture.seoul.go.kr/cmmn/file/getImage.do?atchFileId=3ec72157b39e4b2dbd372c43cc1d695c&thumb=Y,https://www.gallerythec.com/,서울시문화공간,A
POI_EC1EDE5F,갤러리미즈,37.5755954796793,126.985829029631,서울특별시 종로구 삼일대로 461,미술관/갤러리,,,종로구,https://culture.seoul.go.kr/cmmn/file/getImage.do?atchFileId=9b416c317f2143bf8aaee3b44e74218a&thumb=Y,https://gallerymiz.com/,서울시문화공간,A
POI_6D14021F,갤러리비케이 이태원,37.5369571346384,127.001296420098,서울특별시 용산구 이태원로42길 56,미술관/갤러리,,,용산구,https://culture.seoul.go.kr/cmmn/file/getImage.do?atchFileId=ATH_SPC_000000000000000000101100&thumb=Y,http://www.gallerybk.co.kr/,서울시문화공간,A
POI_CD05C38E,갤러리세줄,37.6134222984483,126.975144951828,서울특별시 종로구 평창30길 40,미술관/갤러리,,,종로구,https://culture.seoul.go.kr/cmmn/file/getImage.do?atchFileId=ATH_SPC_000000000000000000100483&thumb=Y,http://www.sejul.com,서울시문화공간,A
POI_10C4252D,갤러리아리아,37.5094570810951,127.113220365122,서울특별시 송파구 오금로 170,미술관/갤러리,,,송파구,https://culture.seoul.go.kr/cmmn/file/getImage.do?atchFileId=db3eb271dc3e4ab598bcb34fde3ea13d&thumb=Y,https://www.instagram.com/_gallery__aria,서울시문화공간,A
POI_F0F91A54,갤러리원,37.5275164514377,127.045900812708,서울특별시 강남구 압구정로71길 14,미술관/갤러리,,,강남구,https://culture.seoul.go.kr/cmmn/file/getImage.do?atchFileId=ATH_SPC_000000000000000000100057&thumb=Y,http://www.gallerywon.co.kr/,서울시문화공간,A
POI_935F894A,갤러리자유(Gallery Jayu),37.5335020410682,126.98931187262,서울특별시 용산구 녹사평대로32길 8,미술관/갤러리,,,용산구,https://culture.seoul.go.kr/cmmn/file/getImage.do?atchFileId=ae0b8e724a724d3ab6ac3dfb9b3e4002&thumb=Y,https://blog.naver.com/galleryjayu,서울시문화공간,A
POI_85F002D7,갤러리현대,37.5773056844787,126.979823330741,서울 종로구 삼청로 14 갤러리현대,미술관/갤러리,,,종로구,https://culture.seoul.go.kr/cmmn/file/getImage.do?atchFileId=4c42407862b845919ec13d8b263faab3&thumb=Y,http://www.galleryhyundai.com/,서울시문화공간,A
POI_B78EE485,갯가,37.5871248,126.8035907,,지명,,,,,,서울역사편찬원,A
POI_7B80B28E,갯골,37.5754116,127.0124487,,지명,,,,,,서울역사편찬원,A
POI_43487B4D,갯들,37.4802905,127.0626272,,지명,,,,,,서울역사편찬원,C
POI_9CF1DAB3,갯마을지하보도,37.4971991,126.9827912,,지명,,,,,,서울역사편찬원,C
POI_C5415BF1,갯말,37.4979112,126.9834634,,지명,,,,,,서울역사편찬원,A
POI_75E55502,갯말산,37.4983545,126.9796254,,지명,,,,,,서울역사편찬원,C
POI_162E0736,갯모랭이, 37.5871248,126.8035907,,지명,,,,,,서울역사편찬원,A
POI_18096B9B,갯모랭이다리,37.578926,126.799330,,지명,,,,,,서울역사편찬원,C
POI_3C9E685E,갯모루,37.5578058,127.1310675,,지명,,,,,,서울역사편찬원,A
POI_EB040986,갯물,37.5578058,127.1310675,,지명,,,,,,서울역사편찬원,A
POI_A421F1DF,갯불,37.5578058,127.1310675,,지명,,,,,,서울역사편찬원,A
POI_455E9D75,거는장내,37.474416,126.935601,,지명,,,,,,서울역사편찬원,C
POI_0456631B,거늠말,37.486019,126.9691562,,지명,,,,,,서울역사편찬원,A
POI_137727D5,거능개논,37.4826987,126.888039,,지명,,,,,,서울역사편찬원,C
POI_1E5B686C,거둥고개,37.5450482,126.9603142,,지명,,,,,,서울역사편찬원,A
POI_B8E615DA,거리공원길,37.499323,126.891440,,지명,,,,,,서울역사편찬원,C
POI_85F0B21F,거마도서관,37.4935489790566,127.146822326781,서울특별시 송파구 거마로2길 19,도서관,,,송파구,https://culture.seoul.go.kr/cmmn/file/getImage.do?atchFileId=c22c6f1c64354e07b7841a4de270ddc6&thumb=Y,https://www.splib.or.kr/spglib/index.do,서울시문화공간,A
POI_44DD733C,거마로(巨馬路),37.497396,127.146277,,지명,,,,,,서울역사편찬원,C
POI_8FA83F32,거멍산굴,37.5978634,126.9288346,,지명,,,,,,서울역사편찬원,C
POI_F85E4529,거문동(巨文洞),37.4969629,127.1432332,,지명,,,,,,서울역사편찬원,A
POI_1C0733A0,거북고개,37.490721,126.917536,,지명,,,,,,서울역사편찬원,C
POI_AD9B8411,거북골,37.5772986,126.9681454,,지명,,,,,,서울역사편찬원,A
POI_4B93C052,거북골길,37.575267,126.913935,,지명,,,,,,서울역사편찬원,C
POI_C5EACDF4,거북바위,37.578231,126.969522,,지명,,,,,,서울역사편찬원,A
POI_B7D6B204,거섶바텡이,37.509312,126.9026969,,지명,,,,,,서울역사편찬원,A
POI_8711DA03,거수교(擧水橋),37.548572,126.9368133,,지명,,,,,,서울역사편찬원,C
POI_2A648EAC,거수봉(擧首峰),37.5952093,126.9978087,,지명,,,,,,서울역사편찬원,C
POI_B9C41694,거암(踞岩),37.5585406,126.9581755,,지명,,,,,,서울역사편찬원,C
POI_7E20B4E7,거암동(踞岩洞),37.5585406,126.9581755,,지명,,,,,,서울역사편찬원,A
POI_BCE6EB4F,거암리(巨岩里),37.4897279,127.1449912,,지명,,,,,,서울역사편찬원,A
POI_AA9C2A4F,거암아트홀,37.5195101291255,127.019106035326,서울특별시 강남구 강남대로 652 SINSA SQUARE 4층 거암아트홀,공연장,,,강남구,https://culture.seoul.go.kr/cmmn/file/getImage.do?atchFileId=6e1cb9a709c94a9a95ba3dd1adf02ef4&thumb=Y,https://www.geoam.co.kr/,서울시문화공간,A
POI_06AC0369,거여(巨余),37.493422,127.143597,,지명,,,,,,서울역사편찬원,A
POI_D278C37B,거여(巨餘),37.4706432,127.0416243,,지명,,,,,,서울역사편찬원,A
POI_388080A4,거여동(巨餘洞),37.4897279,127.1449912,,지명,,,,,,서울역사편찬원,A
POI_7EA05A91,거여동길,37.532012,127.141685,,지명,,,,,,서울역사편찬원,C
POI_4D428239,거여리,37.4706432,127.0416243,,지명,,,,,,서울역사편찬원,A
POI_375463FE,거여리(巨餘里),37.4897279,127.1449912,,지명,,,,,,서울역사편찬원,A
POI_0912680F,거여제1동(巨餘第1洞),37.4969629,127.1432332,,지명,,,,,,서울역사편찬원,A
POI_32D8C8B9,거여제2동(巨餘第2洞),37.493547,127.146788,,지명,,,,,,서울역사편찬원,A
POI_05A185B6,거평동(居平洞),37.5679159,126.9668616,,지명,,,,,,서울역사편찬원,A
POI_CA8BA387,건강힐링센터,37.5175790145525,126.845873645663,서울특별시 양천구 남부순환로83길 54,기타,,,양천구,https://culture.seoul.go.kr/cmmn/file/getImage.do?atchFileId=58dc679b50f342dd9c80448e4bb1b42a&thumb=Y,https://www.yangcheon.go.kr/healing/healing/main.do,서울시문화공간,A
POI_E0B8F054,건국대학교 박물관,37.54240517067264,127.07559228463867,서울특별시 광진구 능동로 120,박물관/기념관,,,광진구,https://culture.seoul.go.kr/cmmn/file/getImage.do?atchFileId=ATH_SPC_000000000000000000100111&thumb=Y,https://museum.konkuk.ac.kr/Museum/index.do,서울시문화공간,A
POI_37442F25,건국대학교 새천년관대공연장,37.539182674872,127.074711902268,서울특별시 광진구 능동로 120 새천년관 B2,공연장,,,광진구,https://culture.seoul.go.kr/cmmn/file/getImage.do?atchFileId=f4173db8390640fe91a22d4416ee8a7c&thumb=Y,http://www.weneart.com/,서울시문화공간,A
POI_B44252EF,건너말,37.5797474,127.0557043,,지명,,,,,,서울역사편찬원,A
POI_D3867EA2,건너짝산,37.5030677,126.8287081,,지명,,,,,,서울역사편찬원,C
POI_B26D0ACE,건넌들,37.48562,126.9723172,,지명,,,,,,서울역사편찬원,C
POI_E1B348E1,건넌말,37.5004389,126.8285296,,지명,,,,,,서울역사편찬원,A
POI_95CCC54C,건넌산,37.4892371,126.8892026,,지명,,,,,,서울역사편찬원,C
POI_7D0A896A,건넝굴,37.5870737,126.9489545,,지명,,,,,,서울역사편찬원,A
POI_568FDDDA,건대입구(建大入口),37.540372,127.069276,,지명,,,,,,서울역사편찬원,A
POI_8DC6B371,건대입구지하보도,37.5408043,127.0732433,,지명,,,,,,서울역사편찬원,C
POI_CB9560B8,건덕방계(建德坊契),37.5738881,127.0069671,,지명,,,,,,서울역사편찬원,C
POI_7F18E62E,건삼밭,37.6510125,127.0799977,,지명,,,,,,서울역사편찬원,A
POI_4BA8BA0A,건양현(建陽峴),37.577093,126.993975,,지명,,,,,,서울역사편찬원,A
POI_857F17D1,건지봉(乾芝峰),37.477704,126.831717,,지명,,,,,,서울역사편찬원,A
POI_233CCA4C,건지산(乾芝山),37.4810886,126.8236073,,지명,,,,,,서울역사편찬원,C
POI_785C946C,건천(乾川),37.5645844,126.99430,,지명,,,,,,서울역사편찬원,C
POI_D1E0D4A0,건천동(乾川洞),37.565504,126.994538,,지명,,,,,,서울역사편찬원,B
POI_794614C9,걸바위,37.5585406,126.9581755,,지명,,,,,,서울역사편찬원,C
POI_F06646C2,걸바윗골,37.5585406,126.9581755,,지명,,,,,,서울역사편찬원,A
POI_48742BA2,걸상바위,37.5757557,126.9676092,,지명,,,,,,서울역사편찬원,A
POI_99ED1345,검내,37.514597,127.0678895,,지명,,,,,,서울역사편찬원,A
POI_8C672D5C,검덕산(鈐德山),37.5547349,126.8452895,,지명,,,,,,서울역사편찬원,A
POI_3B7C8A43,검덩미,37.5547349,126.8452895,,지명,,,,,,서울역사편찬원,A
POI_59DEC6FE,검덩미골짜기,37.5547349,126.8452895,,지명,,,,,,서울역사편찬원,A
POI_84FA1778,검두산,37.5547349,126.8452895,,지명,,,,,,서울역사편찬원,A
POI_6A73E2C6,검둥뫼,37.5547349,126.8452895,,지명,,,,,,서울역사편찬원,A
POI_4BA5C503,검마을,37.5156746,127.1253915,,지명,,,,,,서울역사편찬원,A
POI_59F50E3D,검바위,37.6679687,127.0792901,,지명,,,,,,서울역사편찬원,A
POI_FB035F8C,검암(黔岩),37.653192,126.940183,,지명,,,,,,서울역사편찬원,C
POI_06D65165,검암리(黔岩里),37.644052,126.9181399,,지명,,,,,,서울역사편찬원,A
POI_1FC840E0,검암산(儉岩山),37.6161111,127.1166667,,지명,,,,,,서울역사편찬원,A
POI_035009D8,검은돌,37.502061,126.959850,,지명,,,,,,서울역사편찬원,A
POI_3CB63A13,검은바위,37.636858,126.919362,,지명,,,,,,서울역사편찬원,A
POI_BE80DC8D,검은바위골,37.644052,126.9181399,,지명,,,,,,서울역사편찬원,A
POI_762604FC,검정다리,37.5486093,126.9262631,,지명,,,,,,서울역사편찬원,C
POI_1F5AB1B2,검지산,37.4427154,126.9115073,,지명,,,,,,서울역사편찬원,C
POI_61B5E62F,검지산(劍支山),37.5522008,126.8428442,,지명,,,,,,서울역사편찬원,A
POI_314E8CEA,검천(儉川),37.494192,127.100183,,지명,,,,,,서울역사편찬원,A
POI_509C9523,검천(黔川),37.494192,127.100183,,지명,,,,,,서울역사편찬원,A
POI_DCA25331,게내,37.5479017,127.1731177,,지명,,,,,,서울역사편찬원,A
POI_95048CAA,게내안말,37.5511028,127.1696401,,지명,,,,,,서울역사편찬원,A
POI_D5CB08F7,게네길,37.553711,127.165176,,지명,,,,,,서울역사편찬원,C
POI_DA5038DC,게네안길,37.550670,127.170258,,지명,,,,,,서울역사편찬원,C
POI_56FE7B13,게루지마을,37.5081537,127.0116349,,지명,,,,,,서울역사편찬원,A
POI_9A29CCE4,게리,37.470575,127.041216,,지명,,,,,,서울역사편찬원,A
POI_B6D61403,게천,37.553442,127.172864,,지명,,,,,,서울역사편찬원,A
POI_2A1DAEA2,겜리,37.4897279,127.1449912,,지명,,,,,,서울역사편찬원,A
POI_8C12B6E6,견암(犬岩),37.552924,126.9502439,,지명,,,,,,서울역사편찬원,A
POI_2AD6E3E2,견정(堅井),37.5659874,126.9805864,,지명,,,,,,서울역사편찬원,C
POI_BF7A30B8,견정동(堅井洞),37.5659874,126.9805864,,지명,,,,,,서울역사편찬원,A
POI_547DD13C,견주모텡이,37.5233986,126.9905244,,지명,,,,,,서울역사편찬원,A
POI_F42CE2A7,견주물,37.5233986,126.9905244,,지명,,,,,,서울역사편찬원,C
POI_1B19C7DD,견지공평동(堅志公平洞),37.5735218,126.9830126,,지명,,,,,,서울역사편찬원,C
POI_5C114968,견지동(堅志洞),37.5735218,126.9830126,,지명,,,,,,서울역사편찬원,A
POI_259F3D91,견지정(堅志町),37.5735218,126.9830126,,지명,,,,,,서울역사편찬원,A
POI_5308933D,견항(犬項),37.545339,127.103623,,지명,,,,,,서울역사편찬원,C
POI_437075EB,겸재길,37.588073,127.0862569,,지명,,,,,,서울역사편찬원,C
POI_54EA858F,겸재정선미술관,37.5722229700452,126.838412024868,서울특별시 강서구 양천로47길 36,미술관/갤러리,,,강서구,https://culture.seoul.go.kr/cmmn/file/getImage.do?atchFileId=d88e1fe0ffcf4d8f8618323533005e28&thumb=Y,https://culture.gangseo.seoul.kr/gsfc/main/contents.do?menuNo=800054,서울시문화공간,A
POI_E8F2B0AA,경1계(景1契),37.583495,126.999476,,지명,,,,,,서울역사편찬원,C
POI_A2AF54AD,경2계(景2契),37.5738881,127.0069671,,지명,,,,,,서울역사편찬원,C
POI_AC4A172C,경교(京橋),37.565153,126.967872,,지명,,,,,,서울역사편찬원,B
POI_D56160A9,경교다리말,37.565153,126.967872,,지명,,,,,,서울역사편찬원,A
POI_C9A697CF,경굣다리,37.565153,126.967872,,지명,,,,,,서울역사편찬원,A
POI_34DC7EEE,경구계(京口契),37.5665004,126.9682574,,지명,,,,,,서울역사편찬원,C
POI_171C1998,경기동(經基洞),37.5749578,127.0059617,,지명,,,,,,서울역사편찬원,A
POI_60B4BDA9,경깃골,37.5749578,127.0059617,,지명,,,,,,서울역사편찬원,A
POI_FE70E772,경동장길,37.584643,127.040423,,지명,,,,,,서울역사편찬원,C
POI_A1F52270,경리청계(經理廳契),37.5975499,126.9624425,,지명,,,,,,서울역사편찬원,C
POI_3DE4DF9E,경마공원(競馬公園),37.443959,127.007767,,지명,,,,,,서울역사편찬원,A
POI_53977ACA,경모궁방(景慕宮坊),37.5903581,126.9934527,,지명,,,,,,서울역사편찬원,C
POI_5A47735D,경무동(景武洞),37.5846976,126.9727062,,지명,,,,,,서울역사편찬원,C
POI_3FFDAE89,경문밭(慶門―),37.5470548,126.8196088,,지명,,,,,,서울역사편찬원,C
POI_22D09C2D,경문재(慶門―),37.5485066,126.8286791,,지명,,,,,,서울역사편찬원,C
POI_0BC2D15C,경문현(慶門峴),37.5485066,126.8286791,,지명,,,,,,서울역사편찬원,C
POI_258B5E9B,경방사택,37.509312,126.9026969,,지명,,,,,,서울역사편찬원,A
POI_50FA2191,경복궁,37.5759040910202,126.976842133821,서울특별시 종로구 사직로 161,문화/체육,,,,,https://royal.khs.go.kr/gbg,서울시야경명소,A
POI_772C41DD,경복궁 수정전,37.5759040910202,126.976842133821,서울특별시 종로구 사직로 161,박물관/기념관,,,종로구,https://culture.seoul.go.kr/cmmn/file/getImage.do?atchFileId=0668f2be64104dceb96a41af9685fd32&thumb=Y,https://royal.cha.go.kr/ROYAL/contents/menuInfo-gbg.do?grpCode=gbg,서울시문화공간,A
POI_61EF0C5E,경복궁(정부중앙청사),37.575879,126.973567,,지명,,,,,,서울역사편찬원,A
POI_C734115D,경부고속도로(京釜高速道路),37.412808,127.087671,,지명,,,,,,서울역사편찬원,C
POI_CE11B54E,경서로(京西路),37.500992,126.858321,,지명,,,,,,서울역사편찬원,C
POI_35D74692,경수가로(京水街路),37.336702,126.980257,,지명,,,,,,서울역사편찬원,C
POI_C15D961D,경수산업도로(京水産業道路),37.336702,126.980257,,지명,,,,,,서울역사편찬원,C
POI_F6DCE016,경영고계(京營庫契),37.5665004,126.9682574,,지명,,,,,,서울역사편찬원,C
POI_E527E030,경영구계(京營口契),37.5665004,126.9682574,,지명,,,,,,서울역사편찬원,C
POI_15B65A98,경운궁계(慶雲宮契),37.5666082,126.9731481,,지명,,,,,,서울역사편찬원,C
POI_0EEC65B4,경운동(慶雲洞),37.5752013,126.9864207,,지명,,,,,,서울역사편찬원,A
POI_E4174A28,경운박물관,37.48783935741881,127.06604493487576,서울특별시 강남구 삼성로 29  경기여고 100주년기념관 1층,박물관/기념관,,,강남구,https://culture.seoul.go.kr/cmmn/file/getImage.do?atchFileId=8a772c0498ed40eeae3049cfce2ef248&thumb=Y,http://kwmuseum.org,서울시문화공간,A
POI_EB6D7F16,경운정(慶雲町),37.5752013,126.9864207,,지명,,,,,,서울역사편찬원,A
POI_5F1B1A50,경원대(暻園大),37.449602,127.126635,,지명,,,,,,서울역사편찬원,C
POI_7B131FEE,경인1보도육교,37.528575,126.853591,,지명,,,,,,서울역사편찬원,C
POI_7BDD119A,경인1지하차도,37.5307039,126.8713976,,지명,,,,,,서울역사편찬원,C
POI_1D3D3E8E,경인2보도육교,37.527335,126.844883,,지명,,,,,,서울역사편찬원,C
POI_853A6A49,경인2지하차도,37.528041,126.849786,,지명,,,,,,서울역사편찬원,C
POI_285D2F28,경인3보도육교,37.5263646,126.8375834,,지명,,,,,,서울역사편찬원,C
POI_522A0C8D,경인고속도로(京仁高速道路),37.522855,126.817025,,지명,,,,,,서울역사편찬원,C
POI_3F310FE1,경인로(京仁路),37.497006,126.859665,,지명,,,,,,서울역사편찬원,C
POI_B142E70E,경인미술관,37.5745908579478,126.985723489033,서울특별시 종로구 인사동10길 11-4,미술관/갤러리,,,종로구,https://culture.seoul.go.kr/cmmn/file/getImage.do?atchFileId=ATH_SPC_000000000000000000100343&thumb=Y,http://www.kyunginart.co.kr/,서울시문화공간,A
POI_53EEC291,경인철도횡단보도육교,37.494319,126.833173,,지명,,,,,,서울역사편찬원,C
POI_24AEDD34,경정(京町),37.5371083,126.96942,,지명,,,,,,서울역사편찬원,A
POI_C1B56C1E,경줏골,37.629038,127.0367452,,지명,,,,,,서울역사편찬원,A
POI_3A0C69BF,경줏굴,37.629038,127.0367452,,지명,,,,,,서울역사편찬원,A
POI_B94B3F95,경줏말,37.629038,127.0367452,,지명,,,,,,서울역사편찬원,A
POI_39FADB68,경짓굴,37.6130288,126.9745028,,지명,,,,,,서울역사편찬원,C
POI_B4ECBB47,경춘선변보도육교,37.660387,127.0719683,,지명,,,,,,서울역사편찬원,C
POI_8155D0E1,경춘선숲길 갤러리,37.6250819894787,127.093707085206,서울특별시 노원구 화랑로 620,미술관/갤러리,,,노원구,https://culture.seoul.go.kr/cmmn/file/getImage.do?atchFileId=494d80ea19f3425c9f90dabdc8ff8cac&thumb=Y,https://www.nowonarts.kr/html/cultureeducation/culturalfacility.php,서울시문화공간,A
POI_0BA83B80,경춘철교(京春鐵橋),37.6307453,127.0643869,,지명,,,,,,서울역사편찬원,A
POI_B5E58758,경톳벌,37.5690459,126.9159444,,지명,,,,,,서울역사편찬원,C
POI_03367EDE,경티말,37.5756218,126.9194417,,지명,,,,,,서울역사편찬원,A
POI_40EBE38C,경행방(慶幸坊),37.5704572,126.9869372,,지명,,,,,,서울역사편찬원,C
POI_C4D8C6BB,경향아트힐,37.5681732680976,126.969976113229,서울 중구 정동길 3 경향신문사건물,기타,,,중구,https://culture.seoul.go.kr/cmmn/file/getImage.do?atchFileId=adf1ed96cbdd4b1382559b9d40dab969&thumb=Y,없음,서울시문화공간,A
POI_141E8FDE,경희궁,37.57078184592975,126.96865021365493,서울특별시 종로구 새문안로 45,박물관/기념관,,,종로구,https://culture.seoul.go.kr/cmmn/file/getImage.do?atchFileId=920a362a1db5422da66d87db440a547f&thumb=Y,https://museum.seoul.go.kr/www/intro/annexIntro/annex_20/annex_20_01.jsp,서울시문화공간,A
POI_E76CD0CC,경희대학교 자연사박물관,37.59782541765426,127.0552089479752,서울특별시 동대문구 경희대로 26,박물관/기념관,,,동대문구,https://culture.seoul.go.kr/cmmn/file/getImage.do?atchFileId=f3abf3f9179549088e6c8bbf6d3ca84a&thumb=Y,http://nhm.khu.ac.kr,서울시문화공간,A
POI_8F3FE805,경희대학교 중앙박물관,37.59713729362956,127.05272856110398,서울특별시 동대문구 경희대로 26,박물관/기념관,,,동대문구,https://culture.seoul.go.kr/cmmn/file/getImage.do?atchFileId=e5fbe076bd1548679683de6e3804da67&thumb=Y,http://museum.khu.ac.kr,서울시문화공간,A
POI_99FC8047,경희대학교한의학역사박물관,37.59583018210771,127.05421667214812,서울특별시 동대문구 경희대로 26,박물관/기념관,,,동대문구,https://culture.seoul.go.kr/cmmn/file/getImage.do?atchFileId=f830ff4ed9364f5190bb8cff5c564752&thumb=Y,https://neoscholar.khu.ac.kr/museumkm/user/main/view.do,서울시문화공간,A
POI_43FEB0D1,계동(桂洞),37.5823492,126.9869302,,지명,,,,,,서울역사편찬원,A
POI_07D235BE,계동배렴가옥,37.5812970665623,126.9866534944,서울특별시 종로구 계동길 89,기타,,,종로구,https://culture.seoul.go.kr/cmmn/file/getImage.do?atchFileId=8ffdda75d1274dd38ca7f8a0f888e7bb&thumb=Y,https://seoulbrhouse.com/,서울시문화공간,A
POI_08CDD53C,계동정(桂洞町),37.5823492,126.9869302,,지명,,,,,,서울역사편찬원,A
POI_960681D2,계루지다리,37.5039744,127.0007494,,지명,,,,,,서울역사편찬원,C
POI_C1F8514E,계명논,37.5582787,126.8674484,,지명,,,,,,서울역사편찬원,C
POI_0E140D9A,계묵재약수,37.5498982,126.9806255,,지명,,,,,,서울역사편찬원,C
POI_0EAB5E1A,계묵재약수터,37.5498982,126.9806255,,지명,,,,,,서울역사편찬원,C
POI_DE17E08F,계산(경인여대),37.543302,126.728145,,지명,,,,,,서울역사편찬원,A
POI_F565AFD8,계산동계(桂山洞契),37.5823492,126.9869302,,지명,,,,,,서울역사편찬원,C
POI_BCAFB017,계생동(桂生洞),37.5823492,126.9869302,,지명,,,,,,서울역사편찬원,A
POI_3133B67D,계생동계(桂生洞契),37.5823492,126.9869302,,지명,,,,,,서울역사편찬원,C
POI_EEA3A8CD,계생동천(桂生洞川),37.5820119,126.9864646,,지명,,,,,,서울역사편찬원,C
POI_BC3442BD,계성교,37.647979,127.022438,,지명,,,,,,서울역사편찬원,A
POI_038D6EA3,계성께(鷄聲―),37.6510738,127.0234549,,지명,,,,,,서울역사편찬원,A
POI_534DA4A1,계성동(鷄聲洞),37.6510738,127.0234549,,지명,,,,,,서울역사편찬원,A
POI_DE7E57A0,계아전계(雞兒廛契),37.5695207,126.9804208,,지명,,,,,,서울역사편찬원,C
POI_4CBC2216,계양(桂陽),37.571766,126.736299,,지명,,,,,,서울역사편찬원,A
POI_29F4CB73,계청,37.5055033,126.962349,,지명,,,,,,서울역사편찬원,A
POI_5F003C74,계터,37.5837593,127.0372351,,지명,,,,,,서울역사편찬원,A
POI_024D62BB,계터고개,37.5810123,127.0319892,,지명,,,,,,서울역사편찬원,A
POI_E7ADD2CC,고간동(古澗洞),37.5753133,126.9717422,,지명,,,,,,서울역사편찬원,A
POI_1130DB26,고갤러리,37.5873248786113,127.035279851633,서울특별시 동대문구 안암로20길 19,미술관/갤러리,,,동대문구,https://culture.seoul.go.kr/cmmn/file/getImage.do?atchFileId=13bc563eb2434729947a6444ef3d69cd&thumb=Y,https://www.instagram.com/gogallery.kr/,서울시문화공간,A
POI_379C6B45,고대앞지하보도,37.588244,127.034612,,지명,,,,,,서울역사편찬원,C
POI_3454F676,고더기,37.5638217,127.1582312,,지명,,,,,,서울역사편찬원,A
POI_E471147C,고덕(高德),37.555058,127.154127,,지명,,,,,,서울역사편찬원,A
POI_2E071988,고덕2교,37.567646,127.161884,,지명,,,,,,서울역사편찬원,C
POI_D4ADEA3F,고덕3교,37.564089,127.171972,,지명,,,,,,서울역사편찬원,A
POI_B3717063,고덕교,37.563296,127.172748,,지명,,,,,,서울역사편찬원,A
POI_56A29868,고덕동(高德洞),37.5638217,127.1582312,,지명,,,,,,서울역사편찬원,A
POI_286B45E5,고덕동길,37.554698,127.135739,,지명,,,,,,서울역사편찬원,C
POI_43F35DBF,고덕뒷길,37.558149,127.141847,,지명,,,,,,서울역사편찬원,C
POI_FC4CEFB0,고덕리(高德里),37.5638217,127.1582312,,지명,,,,,,서울역사편찬원,A
POI_CE1FDCDE,고덕제1동(高德第1洞),37.557194,127.1517112,,지명,,,,,,서울역사편찬원,A
POI_AC53A568,고덕제2동(高德第2洞),37.5604556,127.1643682,,지명,,,,,,서울역사편찬원,A
POI_FEFDB60C,고덕천,37.554453,127.172564,,지명,,,,,,서울역사편찬원,A
POI_FF38B601,고덕천교,37.5707108,127.1577747,,지명,,,,,,서울역사편찬원,A
POI_BE87CC33,고랑길,37.560129,127.086295,,지명,,,,,,서울역사편찬원,C
POI_A93A1FF4,고래장바위,37.4659338,127.0179442,,지명,,,,,,서울역사편찬원,C
POI_D94F36FB,고려대(종암),37.590403,127.035926,,지명,,,,,,서울역사편찬원,A
POI_FBFF5BFE,고려대로,37.586250,127.025969,,지명,,,,,,서울역사편찬원,C
POI_5FA02D33,고려대학교 박물관,37.589530692665726,127.03434961764154,서울특별시 성북구 안암로 145,박물관/기념관,,,성북구,https://culture.seoul.go.kr/cmmn/file/getImage.do?atchFileId=0e5b47bfc06a439f98705b4e5084227b&thumb=Y,http://museum.korea.ac.kr,서울시문화공간,A
POI_FF6FA145,고령토광산,37.5151795,126.8557093,,지명,,,,,,서울역사편찬원,C
POI_40E2A77B,고름장바위,37.4708528,127.0221068,,지명,,,,,,서울역사편찬원,A
POI_6878B7E1,고리우물,37.5767759,126.9818735,,지명,,,,,,서울역사편찬원,C
POI_D605B912,고리우물골,37.5767759,126.9818735,,지명,,,,,,서울역사편찬원,A
POI_02CA9830,고리정(古里井),37.5767759,126.9818735,,지명,,,,,,서울역사편찬원,C
POI_0775E817,고리정동(古里井洞),37.5767759,126.9818735,,지명,,,,,,서울역사편찬원,A
POI_D1616D1A,고마동(雇馬洞),37.564960,126.968076,,지명,,,,,,서울역사편찬원,B
POI_AC97687C,고마청골,37.564960,126.968076,,지명,,,,,,서울역사편찬원,B
POI_0294142F,고마청동(雇馬廳洞),37.5711499,126.9639851,,지명,,,,,,서울역사편찬원,A
POI_C1396874,고모래산,37.502747,127.012771,,지명,,,,,,서울역사편찬원,C
POI_D27F36A2,고문계(古門―),37.5823776,127.0892215,,지명,,,,,,서울역사편찬원,C
POI_D95E816F,고문께,37.5823776,127.0892215,,지명,,,,,,서울역사편찬원,A
POI_9AF6889F,고병조계(古兵曹契),37.5763887,126.9882387,,지명,,,,,,서울역사편찬원,C
POI_6A52F565,고빗굴,37.6326445,127.0073066,,지명,,,,,,서울역사편찬원,A
POI_1A6520A0,고사남부동(高砂南部洞),37.5803395,127.0227981,,지명,,,,,,서울역사편찬원,B
POI_C7F92DE2,고사리(高寺里),37.504423,126.937628,,지명,,,,,,서울역사편찬원,B
POI_523791EF,고사북부동(高砂北部洞),37.5803395,127.0227981,,지명,,,,,,서울역사편찬원,B
POI_488567D2,고삭정계(古索井契),37.5695207,126.9804208,,지명,,,,,,서울역사편찬원,C
POI_5CD994C0,고산로(古山路),37.556601,127.034146,,지명,,,,,,서울역사편찬원,C
POI_7908622D,고산말(姑山―),37.5497599,126.9431416,,지명,,,,,,서울역사편찬원,A
POI_D2712E1B,고산자교,37.5722852,127.0379635,,지명,,,,,,서울역사편찬원,A
POI_24F894EF,고산자로(古山子路),37.556601,127.034146,,지명,,,,,,서울역사편찬원,C
POI_CAED7BE1,고산절터,37.5385051,126.9925224,,지명,,,,,,서울역사편찬원,C
POI_F82E474F,고속터미널,37.5049142,127.0049151,,지명,,,,,,서울역사편찬원,A
POI_9DD20904,고수우물,37.5882216,126.9931455,,지명,,,,,,서울역사편찬원,A
POI_C0A41C27,고순청계(古巡廳契),37.5625848,126.9707144,,지명,,,,,,서울역사편찬원,C
POI_588E46C5,고순청동계(古巡廳洞契),37.5625848,126.9707144,,지명,,,,,,서울역사편찬원,C
POI_9806E137,고시네촌,37.5799489,126.8306163,,지명,,,,,,서울역사편찬원,A
POI_34B55080,고시정(古市町),37.5520713,126.9724315,,지명,,,,,,서울역사편찬원,A
POI_BC22EDAB,고암(鼓岩),37.5893876,127.0324773,,지명,,,,,,서울역사편찬원,A
POI_8DB6885F,고암전(鼓岩田),37.5990053,127.0352017,,지명,,,,,,서울역사편찬원,C
POI_D1FD6499,고양동(古陽洞),37.569893,126.8395941,,지명,,,,,,서울역사편찬원,A
POI_98B34AAD,고양리(古陽里),37.569893,126.8395941,,지명,,,,,,서울역사편찬원,A
POI_8FE1B4DD,고양이산,37.5358982,126.8978393,,지명,,,,,,서울역사편찬원,C
POI_4599EAC7,고예조계(古禮曹契),37.5714504,126.9801788,,지명,,,,,,서울역사편찬원,C
POI_D2738D0B,고운달동네,37.533,126.8273275,,지명,,,,,,서울역사편찬원,A
POI_4CB84FED,고운담골,37.5659132,126.9803442,,지명,,,,,,서울역사편찬원,B
POI_34AF9FE4,고원강촌(古垣江村),37.5156746,127.1253915,,지명,,,,,,서울역사편찬원,A
POI_774CF80D,고원성(古垣城),37.5156746,127.1253915,,지명,,,,,,서울역사편찬원,A
POI_373A3406,고음월(古音月),37.533,126.8273275,,지명,,,,,,서울역사편찬원,A
POI_B3460846,고인고개,37.4713255,127.04666,,지명,,,,,,서울역사편찬원,A
POI_23194AE0,고잔(古棧),37.3168267,126.8230369,,지명,,,,,,서울역사편찬원,B
POI_CB53041B,고잘,37.5006668,126.8569942,,지명,,,,,,서울역사편찬원,A
POI_997AF4C5,고좌리(高座里),37.5007315,126.863272,,지명,,,,,,서울역사편찬원,A
POI_078F3BE5,고지고개산,37.4794939,126.9931207,,지명,,,,,,서울역사편찬원,C
POI_1B7F77E8,고지봉(高志峰),37.5646292,127.1467681,,지명,,,,,,서울역사편찬원,A
POI_1577344E,고직골,37.595613,126.9072033,,지명,,,,,,서울역사편찬원,A
POI_4D38E377,고척2지하차도,37.5002076,126.8691209,,지명,,,,,,서울역사편찬원,A
POI_2072B8A2,고척교(高尺橋),37.4992313,126.8699767,,지명,,,,,,서울역사편찬원,A
POI_ACF42959,고척동(高尺洞),37.5031884,126.858851,,지명,,,,,,서울역사편찬원,A
POI_7CE5F40C,고척동길,37.500327,126.843040,,지명,,,,,,서울역사편찬원,C
POI_897CB011,고척리(高尺里),37.5031884,126.858851,,지명,,,,,,서울역사편찬원,A
POI_710271DD,고척스카이돔,37.4982125677913,126.867088741096,서울특별시 구로구 경인로 430,문화/체육,,,,,https://www.sisul.or.kr/open_content/skydome/,서울시야경명소,A
POI_AE911DEB,고척제1동(高尺第1洞),37.5003742,126.8627604,,지명,,,,,,서울역사편찬원,A
POI_B8313E98,고척제2동(高尺第2洞),37.506649,126.8585983,,지명,,,,,,서울역사편찬원,A
POI_97AABABA,고척지하차도,37.501659,126.842949,,지명,,,,,,서울역사편찬원,C
POI_1ADA4D9A,고초전(苦草田),37.5715365,126.9309364,,지명,,,,,,서울역사편찬원,C
POI_1FEF1BD8,고촌이종근기념관,37.5596781093752,126.963201979192,서울특별시 서대문구 충정로 8,박물관/기념관,,,서대문구,https://culture.seoul.go.kr/cmmn/file/getImage.do?atchFileId=2802e453473f47bcb75deca0bccdee02&thumb=Y,http://www.kochonhall.or.kr/,서울시문화공간,A
POI_92061978,고추말고개,37.509429,126.895924,,지명,,,,,,서울역사편찬원,C
POI_131CAFEF,고추밭머리,37.5491616,126.9472617,,지명,,,,,,서울역사편찬원,A
POI_4C2F37F2,고택굴,37.595613,126.9072033,,지명,,,,,,서울역사편찬원,A
POI_43462FD2,곡교(曲橋),37.5443765,127.1276202,,지명,,,,,,서울역사편찬원,A
POI_CC123DEF,곡교계(曲橋契),37.5680987,126.9842515,,지명,,,,,,서울역사편찬원,C
POI_1BE5610C,곡교동(曲橋洞),37.5676079,126.9839108,,지명,,,,,,서울역사편찬원,A
POI_150C3A49,곡교리(曲橋里),37.5443765,127.1276202,,지명,,,,,,서울역사편찬원,A
POI_4CAAB9DE,곡정(谷井),37.5639455,127.0084266,,지명,,,,,,서울역사편찬원,A
POI_71AE5A12,곡정동(谷井洞),37.5639455,127.0084266,,지명,,,,,,서울역사편찬원,A
POI_1D154788,곡촌(谷村),37.4853193,126.8838426,,지명,,,,,,서울역사편찬원,A
POI_61BD42D6,곤담골,37.5659132,126.9803442,,지명,,,,,,서울역사편찬원,B
POI_03605D0A,곤당골,37.5659132,126.9803442,,지명,,,,,,서울역사편찬원,B
POI_06D1429E,곤우물골,37.5822319,126.9998819,,지명,,,,,,서울역사편찬원,B
POI_B06D2C15,곧고개,37.4883869,127.0167954,,지명,,,,,,서울역사편찬원,C
POI_81273FCC,곧은우물,37.5664444,126.9977557,,지명,,,,,,서울역사편찬원,A
POI_72E6DDB9,곧은우물골,37.5664444,126.9977557,,지명,,,,,,서울역사편찬원,A
POI_A6ED91EC,골논,37.4794939,126.9931207,,지명,,,,,,서울역사편찬원,C
POI_ACC49DCF,골말,37.5756218,126.9194417,,지명,,,,,,서울역사편찬원,A
POI_8BA1162A,골말길,37.538150,127.131971,,지명,,,,,,서울역사편찬원,C
POI_22F1B92F,골밭,37.5099675,126.8822494,,지명,,,,,,서울역사편찬원,C
POI_2757D7FA,골밭골짜기,37.5656328,126.787786,,지명,,,,,,서울역사편찬원,C
POI_F1AE318F,골봉째,37.4884309,126.8463457,,지명,,,,,,서울역사편찬원,C
POI_BBDA66CE,골우물골,37.5639455,127.0084266,,지명,,,,,,서울역사편찬원,A
POI_9357DD74,골의우물,37.5994604,127.0632505,,지명,,,,,,서울역사편찬원,C
POI_660278D7,골짜기우물,37.5639455,127.0084266,,지명,,,,,,서울역사편찬원,A
POI_32F20986,곰계,37.5823776,127.0892215,,지명,,,,,,서울역사편찬원,C
POI_5BCCA666,곰께,37.5823776,127.0892215,,지명,,,,,,서울역사편찬원,A
POI_40938F46,곰달내,37.533,126.8273275,,지명,,,,,,서울역사편찬원,A
POI_5DFAF1E3,곰달래,37.533,126.8273275,,지명,,,,,,서울역사편찬원,A
POI_07E9B172,곰달래길,37.530882,126.851764,,지명,,,,,,서울역사편찬원,C
POI_75FA4F62,곰말,37.5116108,126.9418959,,지명,,,,,,서울역사편찬원,A
POI_69D55051,곰말다리,37.5212829,127.1175309,,지명,,,,,,서울역사편찬원,A
POI_CDB89350,곰바위,37.485622,126.9723172,,지명,,,,,,서울역사편찬원,C
POI_2C0EDF4F,곰바위굴,37.485622,126.9723172!,,지명,,,,,,서울역사편찬원,C
POI_6782BAB5,곱은다리,37.5676079,126.9839108,,지명,,,,,,서울역사편찬원,A
POI_1EE3636D,곱은다릿골,37.5676079,126.9839108,,지명,,,,,,서울역사편찬원,A
POI_69165040,곳간골,37.5753133,126.9717422,,지명,,,,,,서울역사편찬원,A
POI_CADCFBE2,공간222,37.5893807537221,127.008781822457,서울특별시 성북구 동소문로 24 지하,공연장,,,성북구,https://culture.seoul.go.kr/cmmn/file/getImage.do?atchFileId=cabc0d58a43342a3bfcbb42ce2c41e92&thumb=Y,https:///www.instagram.com/gonggan222,서울시문화공간,A
POI_819F5EE4,공간O'S [공간오즈],37.5266432193517,126.964329373384,서울특별시 용산구 한강대로21길 7,기타,,,용산구,https://culture.seoul.go.kr/cmmn/file/getImage.do?atchFileId=e5cb88daaba34f658722b7d0f5dc9653&thumb=Y,https://gonggan-os.com/,서울시문화공간,A
POI_714873AB,공간아울,37.5818758763205,127.002292683609,서울특별시 종로구 대학로 120 (동숭동) 지하 1층,공연장,,,종로구,https://culture.seoul.go.kr/cmmn/file/getImage.do?atchFileId=7ec077d380014b5dab89bd807a1bfe50&thumb=Y,https://www.facebook.com/p/%EB%8C%80%ED%95%99%EB%A1%9C-%EA%B3%B5%EA%B0%84%EC%95%84%EC%9A%B8-100063971955194/?_rdr,서울시문화공간,A
POI_60339A8E,공간유보,37.5379381336317,127.117446112374,서울 송파구 바람드리길 14 지하1층,미술관/갤러리,,,송파구,https://culture.seoul.go.kr/cmmn/file/getImage.do?atchFileId=c002f97e72e14660a0e96e15d99b7b55&thumb=Y,https://www.instagram.com/space_ubo/,서울시문화공간,A
POI_4024B8AC,공간일리,37.6039872305834,126.961140135552,서울 종로구 세검정로9길 19 안채 공간일리,미술관/갤러리,,,종로구,https://culture.seoul.go.kr/cmmn/file/getImage.do?atchFileId=41e74410a9b4469bb65082515a464a16&thumb=Y,https://blog.naver.com/hsk3881,서울시문화공간,A
POI_1D7C5F24,공간지은,37.5347555969296,127.114906287417,서울 송파구 풍성로 22 1층,미술관/갤러리,,,송파구,https://culture.seoul.go.kr/cmmn/file/getImage.do?atchFileId=aeb392c9f4dd48d3992ca70ce9c89f22&thumb=Y,https://www.instagram.com/spacejieun,서울시문화공간,A
POI_F88BFF95,공간채비,37.561326262637,126.998598237823,서울 중구 서애로1길 11 충무로 헤센스마트 상가201호,기타,,,중구,https://culture.seoul.go.kr/cmmn/file/getImage.do?atchFileId=58475a24755d4a77931772755785c586&thumb=Y,https://www.chaebi.life,서울시문화공간,A
POI_DC266CF8,공간투,37.514176444136,126.901017134427,서울 영등포구 경인로 790 2F/3F,미술관/갤러리,,,영등포구,https://culture.seoul.go.kr/cmmn/file/getImage.do?atchFileId=0b4f693c55eb45ca900ad4d4e66b15b4&thumb=Y,https://www.gongcraft.net/?page_id=9737,서울시문화공간,A
POI_A0493DFC,공공룸,37.578865058887246,126.98736205514392,서울특별시 종로구 계동길 23 북쪽방향 두번째 가게,미술관/갤러리,,,종로구,https://culture.seoul.go.kr/cmmn/file/getImage.do?atchFileId=14a273821f384455848785cb8ce4b68b&thumb=Y,https://www.instagram.com/oo.room_/,서울시문화공간,A
POI_CC0ED20B,공군주택,37.5066909,126.9607295,,지명,,,,,,서울역사편찬원,A
POI_7C2CC5FB,공극산(拱極山),37.5930556,126.9733333,,지명,,,,,,서울역사편찬원,A
POI_DF24CC72,공근혜갤러리 K.O.N.G. GALLERY,37.5840295953174,126.979674787414,서울특별시 종로구 삼청로7길 38,미술관/갤러리,,,종로구,https://culture.seoul.go.kr/cmmn/file/getImage.do?atchFileId=cf7e85ade9f440cab01c482141dde686&thumb=Y,http://www.konggallery.com,서울시문화공간,A
POI_912B98AB,공기바위,37.5508695,126.9479451,,지명,,,,,,서울역사편찬원,A
POI_1BFE9F73,공단(工團),37.320583,126.806151,,지명,,,,,,서울역사편찬원,B
POI_36351536,공단로(工團路),37.484896,126.895615,,지명,,,,,,서울역사편찬원,C
POI_AD390D28,공단보도육교,37.484460,126.902985,,지명,,,,,,서울역사편찬원,C
POI_5794420F,공단입체교차시설,37.492983,126.883008,,지명,,,,,,서울역사편찬원,C
POI_C04224F7,공대동(空垈洞),37.5624528,126.978205,,지명,,,,,,서울역사편찬원,A
POI_45B3D43D,공대천교,37.624658,127.069964,,지명,,,,,,서울역사편찬원,C
POI_CCB1F4DD,공덕(孔德),37.544359,126.9507534,,지명,,,,,,서울역사편찬원,A
POI_041C56E1,공덕골(孔德―),37.6304722,127.0909904,,지명,,,,,,서울역사편찬원,A
POI_A1080D21,공덕굴,37.6304722,127.0909904,,지명,,,,,,서울역사편찬원,A
POI_EFDE7948,공덕동(孔德洞),37.5481125,126.9549965,,지명,,,,,,서울역사편찬원,A
POI_CE0B602C,공덕동부동(孔德東部洞),37.5501476,126.9599995,,지명,,,,,,서울역사편찬원,B
POI_17315F91,공덕리(孔德里),37.5481125,126.9549965,,지명,,,,,,서울역사편찬원,A
POI_508BD8C4,공덕리계(孔德里契),37.5481125,126.9549965,,지명,,,,,,서울역사편찬원,C
POI_8ED03D42,공덕북부동(孔德北部洞),37.5501476,126.9599995,,지명,,,,,,서울역사편찬원,B
POI_74282739,공덕서부동(孔德西部洞),37.5501476,126.9599995,,지명,,,,,,서울역사편찬원,B
POI_ACBED522,공덕이고개,37.5486476,126.948334,,지명,,,,,,서울역사편찬원,A
POI_32E5D1BF,공덕정(孔德町),37.5481125,126.9549965,,지명,,,,,,서울역사편찬원,A
POI_59342A37,공덕제1동(孔德第1洞),37.5501476,126.9599995,,지명,,,,,,서울역사편찬원,B
POI_A430FCFC,공덕제2동(孔德第2洞),37.5501476,126.9599995,,지명,,,,,,서울역사편찬원,B
POI_A61FA0D2,공덕제3동(孔德第3洞),37.5501476,126.9599995,,지명,,,,,,서울역사편찬원,B
POI_A16731A8,공덕제4동(孔德第4洞),37.5501476 ,126.9599995,,지명,,,,,,서울역사편찬원,B
POI_FE4D5FF7,공덕초교앞보도육교,37.546571,126.953092,,지명,,,,,,서울역사편찬원,C
POI_9C97D299,공동지고개,37.5264285,126.8342266,,지명,,,,,,서울역사편찬원,C
POI_FD7CB81A,공릉(서울과학기술대)역,37.625768,127.072931,,지명,,,,,,서울역사편찬원,A
POI_F3609F9C,공릉길,37.630818,127.074537,,지명,,,,,,서울역사편찬원,C
POI_046E5F50,공릉동(孔陵洞),37.6304722,127.0909904,,지명,,,,,,서울역사편찬원,A
POI_5C79AD81,공릉보도육교,37.622059,127.074225,,지명,,,,,,서울역사편찬원,C
POI_9118D740,공릉제1동(孔陵第1洞),37.6247794,127.0737641,,지명,,,,,,서울역사편찬원,A
POI_82DAC019,공릉제2동(孔陵第2洞),37.6212522,127.083291,,지명,,,,,,서울역사편찬원,A
POI_3443CE8C,공릉제3동(孔陵第3洞),37.6247794,127.0737641,,지명,,,,,,서울역사편찬원,C
POI_B493BD3E,공릉청소년문화정보센터,37.62146235791622,127.08300670832529,서울특별시 노원구 노원로1나길 10,기타,,,노원구,https://culture.seoul.go.kr/cmmn/file/getImage.do?atchFileId=ATH_SPC_000000000000000000101246&thumb=Y,http://www.gycenter.or.kr/,서울시문화공간,A
POI_53D63079,공릉터널,37.6355596,127.0813901,,지명,,,,,,서울역사편찬원,B
POI_97A0CA7F,공명곡(孔明谷),37.5552245,126.9901166,,지명,,,,,,서울역사편찬원,A
POI_9EE60095,공명골(孔明―),37.5552245,126.9901166,,지명,,,,,,서울역사편찬원,A
POI_A5A1B5F3,공세논(空稅―),37.5588105,126.8101528,,지명,,,,,,서울역사편찬원,C
POI_01F58DBE,공세논개울,37.5656328,126.787786,,지명,,,,,,서울역사편찬원,C
POI_AD0A7E2A,공세논골짜구니,37.5542807,126.7970146,,지명,,,,,,서울역사편찬원,C
POI_495349CE,공세터(貢稅―),37.5441,126.9304765,,지명,,,,,,서울역사편찬원,A
POI_E16690AC,공세터벌판,37.548572,126.9368133,,지명,,,,,,서울역사편찬원,C
POI_A030DD6D,공암나루터,37.569921,126.8501208,,지명,,,,,,서울역사편찬원,A
POI_8DB47FDC,공암나룻길,37.566719,126.851553,,지명,,,,,,서울역사편찬원,C
POI_99F09739,공암도(孔岩渡),37.569921,126.8501208,,지명,,,,,,서울역사편찬원,A
POI_371DD78D,공암리(孔岩里),37.5684212,126.8506764,,지명,,,,,,서울역사편찬원,A
POI_F2AD3264,공암바위(孔岩―),37.569921,126.8501208,,지명,,,,,,서울역사편찬원,A
POI_E7815826,공암진(孔岩津),37.569921,126.8501208,,지명,,,,,,서울역사편찬원,A
POI_2B1A1F79,공암진나루,37.569921,126.8501208,,지명,,,,,,서울역사편찬원,A
POI_506BDE07,공작봉(孔雀峰),37.495104,126.963660,,지명,,,,,,서울역사편찬원,A
POI_4DE32185,공장말(工場―),37.5691919,126.8156454,,지명,,,,,,서울역사편찬원,A
POI_D4ED71A6,공조뒷골,37.572590,126.974286,,지명,,,,,,서울역사편찬원,A
POI_022A049B,공조후동계(工曹後洞契),37.5715341,126.973692,,지명,,,,,,서울역사편찬원,C
POI_69F3532B,공주릉(公主陵),37.627067,127.037326,,지명,,,,,,서울역사편찬원,A
POI_5E4D52A9,공천고개,37.5611185,126.9588049,,지명,,,,,,서울역사편찬원,A
POI_D3E360BD,공총,37.569921,126.8501208,,지명,,,,,,서울역사편찬원,A
POI_3293ABFC,공총진,37.569921,126.8501208,,지명,,,,,,서울역사편찬원,A
POI_30C20538,공평도시유적전시관,37.57189081127559,126.98338815886144,서울특별시 종로구 우정국로 26,박물관/기념관,,,종로구,https://culture.seoul.go.kr/cmmn/file/getImage.do?atchFileId=ATH_SPC_000000000000000000101548&thumb=Y,https://museum.seoul.go.kr/www/intro/annexIntro/annex_gongpyeong/annex_gongpyeong_01.jsp?sso=ok,서울시문화공간,A
POI_E6B3D157,공평동(公平洞),37.5713061,126.9831782,,지명,,,,,,서울역사편찬원,A
POI_CD98C2FA,공평정(公平町),37.5713061,126.9831782,,지명,,,,,,서울역사편찬원,A
POI_E7624C11,공항동(空港洞),37.5588105,126.8101528,,지명,,,,,,서울역사편찬원,A
POI_D5B55C8E,공항로(空港路),37.559865,126.826897,,지명,,,,,,서울역사편찬원,C
POI_4B594AA2,공항입구보도육교,37.561868,126.808394,,지명,,,,,,서울역사편찬원,C
POI_2FE5F53C,공항입구지하차도,37.5617845,126.8071337,,지명,,,,,,서울역사편찬원,A
POI_D3EC0828,공후동(工後洞),37.572590,126.974286,,지명,,,,,,서울역사편찬원,A
POI_A1F9AEE0,곶이고개,37.485622,126.9723172,,지명,,,,,,서울역사편찬원,C
POI_F5AAF9DB,과동(果洞),37.578703,126.9996943,,지명,,,,,,서울역사편찬원,A
POI_BC78A454,과목골(果木―),37.578703,126.9996943,,지명,,,,,,서울역사편찬원,A
POI_DD1A14BE,과목동(果木洞),37.578703,126.9996943,,지명,,,,,,서울역사편찬원,A
POI_40F3FF97,과부굴(寡婦―),37.5823492,126.9869302,,지명,,,,,,서울역사편찬원,A
POI_0717569F,과부촌(寡婦村),37.4944354,126.9269065,,지명,,,,,,서울역사편찬원,A
POI_F0C938F8,과오동(果五洞),37.5656328,126.787786,,지명,,,,,,서울역사편찬원,C
POI_5AEE825B,과천(果川),37.432785,126.996542,,지명,,,,,,서울역사편찬원,A
POI_CEBDF838,과해교(果海橋),37.5656328,126.787786,,지명,,,,,,서울역사편찬원,C
POI_10F118E2,과해다리,37.5656328,126.787786,,지명,,,,,,서울역사편찬원,C
POI_C54CECE0,과해동(果海洞),37.5656328,126.787786,,지명,,,,,,서울역사편찬원,A
POI_43F0EBFA,과해리(果海里),37.5656328,126.787786,,지명,,,,,,서울역사편찬원,A
POI_14A95CCB,곽계(槨契),37.528515,126.965217,,지명,,,,,,서울역사편찬원,C
POI_AEDB7830,관고개,37.4856514,127.0313604,,지명,,,,,,서울역사편찬원,A
POI_C069753E,관골(冠―),37.5394749,127.0463313,,지명,,,,,,서울역사편찬원,A
POI_F3321B20,관곽계,37.5325468,126.9507037,,지명,,,,,,서울역사편찬원,A
POI_C6EE9C9C,관광방(觀光坊),37.5767759,126.9818735,,지명,,,,,,서울역사편찬원,C
POI_5CD4046D,관광방계(觀光坊契),37.5767759,126.9818735,,지명,,,,,,서울역사편찬원,C
POI_D5093124,관기교(觀旗橋),37.5846997,126.9990412,,지명,,,,,,서울역사편찬원,C
POI_190B01C2,관기교골(觀旗橋―),37.5846997,126.9990412,,지명,,,,,,서울역사편찬원,A
POI_195D51F4,관기교동(觀旗橋洞),37.5846997,126.9990412,,지명,,,,,,서울역사편찬원,A
POI_9B02F682,관기다릿골,37.5846997,126.9990412,,지명,,,,,,서울역사편찬원,A
POI_F5FBD5BA,관기현(館基峴),37.6245225,126.9352941,,지명,,,,,,서울역사편찬원,A
POI_72A94F8F,관다리골,37.5846997,126.9990412,,지명,,,,,,서울역사편찬원,A
POI_2B1E3E03,관다릿골,37.5846997,126.9990412,,지명,,,,,,서울역사편찬원,A
POI_9C660DC5,관덕방(觀德坊),37.5718844,126.9981244,,지명,,,,,,서울역사편찬원,C
POI_29C92A94,관동(觀洞),37.5839229,126.9882633,,지명,,,,,,서울역사편찬원,A
POI_ACA13024,관동(館洞),37.6191594,126.9355669,,지명,,,,,,서울역사편찬원,A
POI_1270E1B2,관동정(館洞町),37.5702997,126.95771,,지명,,,,,,서울역사편찬원,A
POI_71DFC79C,관뒷골,37.5737732,126.9540471,,지명,,,,,,서울역사편찬원,A
POI_95EA5982,관란교(觀瀾橋),37.5596168,126.8532875,,지명,,,,,,서울역사편찬원,C
POI_5E16A5B8,관란동(觀灡洞),37.5423168,126.9426481,,지명,,,,,,서울역사편찬원,A
POI_DE51DC2D,관문사 성보 박물관,37.4737503294487,127.022282279515,서울특별시 서초구 바우뫼로7길 111,박물관/기념관,,,서초구,https://culture.seoul.go.kr/cmmn/file/getImage.do?atchFileId=12eee3cbb72c45ebb9bd77c196db05ea&thumb=Y,https://www.gwanmunsa.org/,서울시문화공간,A
POI_A63F6BCA,관사람말,37.5882216,126.9931455,,지명,,,,,,서울역사편찬원,A
POI_1F79DB4C,관산(關山),37.5741667,126.8394444,,지명,,,,,,서울역사편찬원,A
POI_A64713C9,관상감골,37.5839229,126.9882633,,지명,,,,,,서울역사편찬원,A
POI_7B330765,관상감재(觀象監―),37.577729,126.987988,,지명,,,,,,서울역사편찬원,A
POI_7DC8342E,관상감점(觀象監岾),37.577729,126.987988,,지명,,,,,,서울역사편찬원,A
POI_B3D0263C,관상감현(觀象監峴),37.577729,126.987988,,지명,,,,,,서울역사편찬원,A
POI_C67A599D,관수교(觀水橋),37.5683682,126.992357,,지명,,,,,,서울역사편찬원,A
POI_6B80E0CF,관수동(觀水洞),37.5690749,126.9904779,,지명,,,,,,서울역사편찬원,A
POI_89C506E6,관수정(觀水町),37.5690749,126.9904779,,지명,,,,,,서울역사편찬원,A
POI_4A9DC4E0,관악(冠岳),37.419588,126.908491,,지명,,,,,,서울역사편찬원,A
POI_4344701C,관악고개(冠岳―),37.485622,126.9723172,,지명,,,,,,서울역사편찬원,C
POI_ADC7F54A,관악고진입로보도육교,37.523139,126.884331,,지명,,,,,,서울역사편찬원,C
POI_82AF8416,관악구평생학습관,37.4829905930825,126.922411546168,서울특별시 관악구 남부순환로 1546,기타,,,관악구,https://culture.seoul.go.kr/cmmn/file/getImage.do?atchFileId=f8bc4eb4c74545c79e33f7fe1c2caced&thumb=Y,https://www.gwanak.go.kr/site/edu/01/10102010100002016063010.jsp,서울시문화공간,A
POI_D17DD923,관악로(冠岳路),37.474845,126.952791,,지명,,,,,,서울역사편찬원,C
POI_285471A3,관악산(冠岳山),37.4429385,126.9610024,,지명,,,,,,서울역사편찬원,A
POI_4AFC65C6,관악아트홀,37.4675533645757,126.944962394132,서울특별시 관악구 신림로3길 35,문화예술회관,,,관악구,https://culture.seoul.go.kr/cmmn/file/getImage.do?atchFileId=fa71c280dacf4ecc805ae58baf88a1ea&thumb=Y,https://www.instagram.com/gwanak_arthall/,서울시문화공간,A
POI_A14D8488,관악중앙도서관,37.4675533645757,126.944962394132,서울특별시 관악구 신림로3길 35,도서관,,,관악구,https://culture.seoul.go.kr/cmmn/file/getImage.do?atchFileId=ATH_SPC_000000000000000000100832&thumb=Y,https://lib.gwanak.go.kr/galib/menu/10080/contents/40031/contents.do,서울시문화공간,A
POI_518D97A9,관악지하보도,37.488078,126.957972,,지명,,,,,,서울역사편찬원,C
POI_E5C2FFF8,관악청년청,37.4675533645757,126.944962394132,서울특별시 관악구 신림로3길 35,기타,,,관악구,https://culture.seoul.go.kr/cmmn/file/getImage.do?atchFileId=040d577272ca481e93f49cdfe9743dd7&thumb=Y,https://www.checkin-gwanak.or.kr/main/,서울시문화공간,A
POI_19C4B3BA,관악청소년센터,37.4702439018707,126.935243319909,서울특별시 관악구 신림로23길 17,기타,,,관악구,https://culture.seoul.go.kr/cmmn/file/getImage.do?atchFileId=ATH_SPC_000000000000000000101397&thumb=Y,https://booking.gwanakgongdan.or.kr/booking/1580,서울시문화공간,A
POI_33FAE98F,관암산(冠岩山),37.4708333,127.0094444,,지명,,,,,,서울역사편찬원,A
POI_A4E95CEA,관앞골,37.5715462,126.9614744,,지명,,,,,,서울역사편찬원,A
POI_19FDEF22,관앞동,37.5737732,126.9540471,,지명,,,,,,서울역사편찬원,A
POI_A49BA743,관우물,37.5832313,127.0003645,,지명,,,,,,서울역사편찬원,A
POI_BCB087F4,관우물골,37.5822319,126.9998819,,지명,,,,,,서울역사편찬원,B
POI_BB946F90,관음아파트앞보도육교,37.552811,126.869813,,지명,,,,,,서울역사편찬원,C
POI_7EF0101A,관인방(寬仁妨),37.5741575,126.984682,,지명,,,,,,서울역사편찬원,C
POI_CEAD020D,관자동(貫子洞),37.5691245,126.9860044,,지명,,,,,,서울역사편찬원,A
POI_FC3A4AAE,관자동계(貫子洞契),37.5691245,126.9860044,,지명,,,,,,서울역사편찬원,C
POI_EE5EE55B,관잣골,37.5691245,126.9860044,,지명,,,,,,서울역사편찬원,A
POI_9775386A,관전동(館前洞),37.5737732,126.9540471,,지명,,,,,,서울역사편찬원,A
POI_A3B18BF1,관정(串井),37.4674733,126.8982935,,지명,,,,,,서울역사편찬원,C
POI_2B411886,관정(館井),37.5630063,126.9763875,,지명,,,,,,서울역사편찬원,A
POI_1C680867,관정동(館井洞),37.562676,126.974487,,지명,,,,,,서울역사편찬원,B
POI_3BAB82EA,관중(關中),37.5741667,126.8394444,,지명,,,,,,서울역사편찬원,A
POI_56DF4AFE,관천로 문화플랫폼 S1472,37.4841127974646,126.925774880088,서울특별시 관악구 관천로 53,기타,,,관악구,https://culture.seoul.go.kr/cmmn/file/getImage.do?atchFileId=8a92e5542a37429ba3c7fed06d50fa20&thumb=Y,https://gfac.or.kr/site/main/content/culturePlatform,서울시문화공간,A
POI_9F5544E2,관천로(冠川路),37.484495,126.925896,,지명,,,,,,서울역사편찬원,C
POI_53CD2181,관철동(貫鐵洞),37.5691245,126.9860044,,지명,,,,,,서울역사편찬원,A
POI_32B206FD,관철정(貫鐵町),37.5691245,126.9860044,,지명,,,,,,서울역사편찬원,A
POI_51412E40,관청모랭이,37.4659338,127.0179442,,지명,,,,,,서울역사편찬원,C
POI_E5AA7FDD,관터고개,37.6245225,126.9352941,,지명,,,,,,서울역사편찬원,A
POI_A62C76C7,관텃굴,37.6191594,126.9355669,,지명,,,,,,서울역사편찬원,A
POI_F6A82BA5,관평로(串坪路),37.542869,127.040048,,지명,,,,,,서울역사편찬원,C
POI_50C96A36,관현(觀峴),37.577729,126.987988,,지명,,,,,,서울역사편찬원,A
POI_A13312AC,관현계(觀峴契),37.5839229,126.9882633,,지명,,,,,,서울역사편찬원,C
POI_84B6AA41,관후동(館後洞),37.5737732,126.9540471,,지명,,,,,,서울역사편찬원,A
POI_239969F1,관훈갤러리,37.5737991458507,126.984243988281,서울특별시 종로구 인사동11길 11,미술관/갤러리,,,종로구,https://culture.seoul.go.kr/cmmn/file/getImage.do?atchFileId=ATH_SPC_000000000000000000100344&thumb=Y,http://www.kwanhoongallery.com/,서울시문화공간,A
POI_8927C21C,관훈동(寬勳洞),37.5741575,126.984682,,지명,,,,,,서울역사편찬원,A
POI_F6B373E0,관훈정(寬勳町),37.5741575,126.984682,,지명,,,,,,서울역사편찬원,A
POI_91B32176,광교(廣橋),37.5688402,126.9827468,,지명,,,,,,서울역사편찬원,A
POI_60A77AF2,광교계(廣橋契),37.5688402,126.9827468,,지명,,,,,,서울역사편찬원,C
POI_21AB2C28,광교동(廣橋洞),37.5714504,126.9801788,,지명,,,,,,서울역사편찬원,A
POI_CAA4F09C,광나루,37.5478239,127.1047149,,지명,,,,,,서울역사편찬원,A
POI_5286D6EE,광나루(장신대),37.545339,127.103623,,지명,,,,,,서울역사편찬원,A
POI_38EC8E77,광나룻길,37.545252,127.081673,,지명,,,,,,서울역사편찬원,C
POI_D6F4097A,광남길,37.475379,126.845010,,지명,,,,,,서울역사편찬원,C
POI_70FEFBBC,광례곳골,37.583341,126.999497,,지명,,,,,,서울역사편찬원,B
POI_A8EAE36E,광례교(廣禮橋),37.5833569,127.0018212,,지명,,,,,,서울역사편찬원,C
POI_4F172ADD,광례교동(廣禮橋洞),37.583341,126.999497,,지명,,,,,,서울역사편찬원,B
POI_27265620,광림아트센터 BBCH홀,37.5238953464591,127.025579752364,서울특별시 강남구 논현로163길 33,공연장,,,강남구,https://culture.seoul.go.kr/cmmn/file/getImage.do?atchFileId=fcec39fdd2b34f7594bc6a385af22b65&thumb=Y,http://www.klarts.kr/,서울시문화공간,A
POI_7080CA6C,광림아트센터 장천홀,37.5242621122375,127.026542808066,서울특별시 강남구 압구정로22길 21,공연장,,,강남구,https://culture.seoul.go.kr/cmmn/file/getImage.do?atchFileId=be69e7c8c76b4fa895b6b1eadb145d29&thumb=Y,http://www.klarts.kr/,서울시문화공간,A
POI_8E68C7C5,광명(光明),37.416522,126.884789,,지명,,,,,,서울역사편찬원,B
POI_B776254A,광명고가차도,37.4932918,126.8688434,,지명,,,,,,서울역사편찬원,A
POI_A9776E40,광명고개(光明―),37.4386112,127.0374669,,지명,,,,,,서울역사편찬원,C
POI_FAF8DAA6,광명교,37.4815871,126.8465876,,지명,,,,,,서울역사편찬원,A
POI_7CC872B2,광명대교,37.4849595,126.8710656,,지명,,,,,,서울역사편찬원,A
POI_7D28526C,광명리(光明里),37.5470548,126.8196088,,지명,,,,,,서울역사편찬원,A
POI_4EE57F24,광명마을,37.5470548,126.8196088,,지명,,,,,,서울역사편찬원,A
POI_69DD3F25,광명사거리,37.479286,126.854892,,지명,,,,,,서울역사편찬원,A
POI_A6DA9332,광명이,37.5470548,126.8196088,,지명,,,,,,서울역사편찬원,A
POI_A8F3AE46,광미진,37.576782,127.178032,,지명,,,,,,서울역사편찬원,C
POI_E202627A,광복교,37.4928091,126.8662137,,지명,,,,,,서울역사편찬원,A
POI_CF2FE009,광석골,37.6510125,127.0799977,,지명,,,,,,서울역사편찬원,A
POI_14851BC7,광석굴,37.6510125,127.0799977,,지명,,,,,,서울역사편찬원,A
POI_7F31E775,광석리(廣石里),37.6510125,127.0799977,,지명,,,,,,서울역사편찬원,A
POI_4CBFCCB3,광암(廣岩),37.5577573,126.954261,,지명,,,,,,서울역사편찬원,A
POI_88DE1B5B,광암동(廣岩洞),37.5577573,126.954261,,지명,,,,,,서울역사편찬원,A
POI_5CAC83F7,광운대학교동해문화예술관,37.6193203481648,127.058338066917,서울특별시 노원구 광운로 20,공연장,,,노원구,https://culture.seoul.go.kr/cmmn/file/getImage.do?atchFileId=cc09f9e3c5364432b433de0954892f56&thumb=Y,http://dac.kw.ac.kr/main/main.php,서울시문화공간,A
POI_0549E055,광의동(廣宜洞),37.5424529,127.0856498,,지명,,,,,,서울역사편찬원,A
POI_B84F6EFE,광장동(廣壯洞),37.546845,127.1030134,,지명,,,,,,서울역사편찬원,A
POI_6732B6A2,광장로(廣壯路),37.544840,127.089704,,지명,,,,,,서울역사편찬원,C
POI_D91F5944,광장리(廣壯里),37.5478239,127.1047149,,지명,,,,,,서울역사편찬원,A
POI_4148861F,광장중학교앞지하보도,37.546275,127.100832,,지명,,,,,,서울역사편찬원,C
POI_85C8F2E7,광장중학교앞지하차도,37.546164,127.101014,,지명,,,,,,서울역사편찬원,B
POI_2327C6F5,광장지하차도,37.547502,127.104676,,지명,,,,,,서울역사편찬원,C
POI_AEA03388,광제교(廣濟橋),37.5706016,126.9763539,,지명,,,,,,서울역사편찬원,A
POI_EE21AAF0,광제교계(廣濟橋契),37.5677018,126.9772803,,지명,,,,,,서울역사편찬원,C
POI_9625E3A8,광제바위(廣濟―),37.5676484,126.8529437,,지명,,,,,,서울역사편찬원,A
POI_435829D0,광주경주인계(廣州京主人契),37.5690749,126.9904779,,지명,,,,,,서울역사편찬원,C
POI_3B4CD2C4,광주물,37.4905191,126.86209,,지명,,,,,,서울역사편찬원,A
POI_51DB862E,광주바위(廣州―),37.5676484,126.8529437,,지명,,,,,,서울역사편찬원,A
POI_8E70812D,광주암(廣州岩),37.5676484,126.8529437,,지명,,,,,,서울역사편찬원,A
POI_E3749593,광주인계(廣州人契),37.5692362,126.9940428,,지명,,,,,,서울역사편찬원,C
POI_963A00F0,광주주인계(廣州主人契),37.5692362,126.9940428,,지명,,,,,,서울역사편찬원,C
POI_A5E2B1F3,광진(廣津),37.5478239,127.1047149,,지명,,,,,,서울역사편찬원,A
POI_23E5667D,광진교 8번가,37.5451462595072,127.112687934633,서울 강동구 천호동 527-2,문화/체육,,,,,https://riverview8.co.kr/rv/html/,서울시야경명소,A
POI_AB71B375,광진교(廣津橋),37.544762,127.113096,,지명,,,,,,서울역사편찬원,A
POI_A10C3148,광진동(廣津洞),37.5478239,127.1047149,,지명,,,,,,서울역사편찬원,A
POI_13EF8C1F,광진리(廣津里),37.5478239,127.1047149,,지명,,,,,,서울역사편찬원,A
POI_6F78B492,광진어린이공연장,37.5650580830652,127.08445683899,서울특별시 광진구 능동로 400 보건복지행정타운 별관 4층,공연장,,,광진구,https://culture.seoul.go.kr/cmmn/file/getImage.do?atchFileId=3165927f3905474cb5a5076a3f8b3bcb&thumb=Y,https://naruart.or.kr/index.php,서울시문화공간,A
POI_F868B3EE,광진정보도서관,37.5510729137918,127.110615495296,서울특별시 광진구 아차산로78길 90,도서관,,,광진구,https://culture.seoul.go.kr/cmmn/file/getImage.do?atchFileId=4152235870ae48c69da7332dd1377f5f&thumb=Y,https://www.gwangjinlib.seoul.kr/gjinfo/index.do,서울시문화공간,A
POI_DF062295,광청교(廣淸橋),37.567130,126.983420,,지명,,,,,,서울역사편찬원,C
POI_B82619FC,광치물,37.4942409,126.8519326,,지명,,,,,,서울역사편찬원,A
POI_7078E484,광통교(廣通橋),37.569113,126.9811645,,지명,,,,,,서울역사편찬원,C
POI_050D992D,광통방(廣通坊),37.5691135,126.9811645,,지명,,,,,,서울역사편찬원,C
POI_80F60027,광평교,37.4892092,127.1078863,,지명,,,,,,서울역사편찬원,A
POI_DD01F7BC,광평로(廣平路),37.484303,127.091301,,지명,,,,,,서울역사편찬원,C
POI_75F61642,광화대(廣火大),37.478573,126.845857,,지명,,,,,,서울역사편찬원,A
POI_F6E73644,광화문(세종문화회관),37.571665,126.976502,,지명,,,,,,서울역사편찬원,A
POI_D861CA93,광화문광장(광화문),37.5716228232824,126.976787992565,서울특별시 종로구 세종대로 172,공원/광장,,,,,https://gwanghwamun.seoul.go.kr/,서울시야경명소,A
POI_CB06018C,광화문아트홀,37.5742098160357,126.964661018954,서울특별시 종로구 인왕산로1길 21,문화예술회관,,,종로구,https://culture.seoul.go.kr/cmmn/file/getImage.do?atchFileId=ATH_SPC_000000000000000000100901&thumb=Y,https://www.ijongno.co.kr/fmcs/41,서울시문화공간,A
POI_03CDB376,광화문지하보도,37.570166,126.977098,,지명,,,,,,서울역사편찬원,C
POI_7A8CC10D,광화문통(光化門通),37.5802252,126.9767995,,지명,,,,,,서울역사편찬원,A
POI_876BC11A,광화방(廣化坊),37.5839229,126.9882633,,지명,,,,,,서울역사편찬원,C
POI_05A727F0,광화방계(廣化坊契),37.5839229,126.9882633,,지명,,,,,,서울역사편찬원,C
POI_A463FE39,광흥당,37.5486522177452,126.928706582608,서울특별시 마포구 독막로21길 15,박물관/기념관,,,마포구,https://culture.seoul.go.kr/cmmn/file/getImage.do?atchFileId=4998ab23caad4a97a0e966cfd51b18f6&thumb=Y,http://www.mapocc.or.kr/page/page5,서울시문화공간,A
POI_23C9D228,광흥창(서강),37.547481,126.931951,,지명,,,,,,서울역사편찬원,A
POI_BB02DA00,광희1가동(光熙1街洞),37.5644244,127.0050225,,지명,,,,,,서울역사편찬원,B
POI_B556BC85,광희2가동(光熙2街洞),37.5639455,127.0084266,,지명,,,,,,서울역사편찬원,B
POI_BB69DDE6,광희고가차도,37.564845,127.011443,,지명,,,,,,서울역사편찬원,C
POI_F0689578,광희동(光熙洞),37.5644244,127.0050225,,지명,,,,,,서울역사편찬원,A
POI_F1D4633A,광희동1가(光熙洞1街),37.5650229,127.0053253,,지명,,,,,,서울역사편찬원,A
POI_02857C94,광희동2가(光熙洞2街),37.5639455,127.0084266,,지명,,,,,,서울역사편찬원,A
POI_4F805304,광희로(光熙路),37.561586,126.995618,,지명,,,,,,서울역사편찬원,C
POI_4C8475DC,광희문지하보도,37.565357,127.015717,,지명,,,,,,서울역사편찬원,C
POI_88FC1636,광희정1정목(光熙町1丁目),37.5650229,127.0053253,,지명,,,,,,서울역사편찬원,A
POI_87A3C564,광희정2정목(光熙町2丁目),37.5639455,127.0084266,,지명,,,,,,서울역사편찬원,A
POI_9EB6595D,괭맹이고개,37.4386112,127.0374669,,지명,,,,,,서울역사편찬원,C
POI_A1626430,괭이굴,37.6572676,127.003039,,지명,,,,,,서울역사편찬원,C
POI_E82EFE46,괭이산,37.535935,126.897785,,지명,,,,,,서울역사편찬원,C
POI_7A0E0D20,괭잇골,37.5691245,126.9860044,,지명,,,,,,서울역사편찬원,A
POI_FC3D13E7,괴동(槐洞),37.5713061,126.9831782,,지명,,,,,,서울역사편찬원,A
POI_9B136608,괴림옥천(槐林玉泉),37.5738782,126.9705612,,지명,,,,,,서울역사편찬원,C
POI_31D7C2C1,괴정동(槐井洞),37.5736973,126.9806453,,지명,,,,,,서울역사편찬원,A
POI_F7CD2B9E,괴천(槐泉),37.5730496,127.0030882,,지명,,,,,,서울역사편찬원,C
POI_34AD7DA2,괴천동(槐泉洞),37.5723947,127.0046379,,지명,,,,,,서울역사편찬원,A
POI_C20827BC,괴하동(槐下洞),37.474728,127.107530,,지명,,,,,,서울역사편찬원,A
POI_506B7728,굉명이,37.5470548,126.8196088,,지명,,,,,,서울역사편찬원,A
POI_B83E46AB,굉이말,37.569893,126.8395941,,지명,,,,,,서울역사편찬원,A
POI_1C0D21DA,굉이바위,37.5676484,126.852943,,지명,,,,,,서울역사편찬원,A
POI_18C50738,교곡(橋谷),37.6046451,127.0393912,,지명,,,,,,서울역사편찬원,A
POI_CF03009E,교남동(橋南洞),37.5718672,126.9619709,,지명,,,,,,서울역사편찬원,A
POI_08EFD75C,교남정(橋南町),37.5716359,126.9639041,,지명,,,,,,서울역사편찬원,A
POI_66C07BA2,교남지하보도,37.567461,126.965065,,지명,,,,,,서울역사편찬원,C
POI_F46CFE37,"교대(법원,검찰청)",37.493902,127.014395,,지명,,,,,,서울역사편찬원,A
POI_C055ADDB,교동(校洞),37.5730067,126.9873343,,지명,,,,,,서울역사편찬원,A
POI_5F6D6E03,교동(橋洞),37.5639874,127.0280247,,지명,,,,,,서울역사편찬원,A
POI_1446107C,교동계(校洞契),37.5752013,126.9864207,,지명,,,,,,서울역사편찬원,C
POI_F48F528C,교보타워사거리,37.5044599,127.0244945,,지명,,,,,,서울역사편찬원,C
POI_957CB012,교북동(橋北洞),37.5715462,126.9614744,,지명,,,,,,서울역사편찬원,A
POI_C46F2296,교북정(橋北町),37.5715462,126.9614744,,지명,,,,,,서울역사편찬원,A
POI_519E2F4D,교서관골(校書館―),37.5606593,126.9894037,,지명,,,,,,서울역사편찬원,A
POI_74F95F60,교서관동(校書館洞),37.5606593,126.9894037,,지명,,,,,,서울역사편찬원,A
POI_BE7AAF31,교수촌(敎授村),37.4762779,127.1003704,,지명,,,,,,서울역사편찬원,A
POI_84AEA8A4,교암(橋岩),37.5804013,126.9627059,,지명,,,,,,서울역사편찬원,C
POI_BD5C1E24,구경바위,37.5498982,126.9806255,,지명,,,,,,서울역사편찬원,C
POI_0ABA4CEB,구곡골,37.5775931,126.9708729,,지명,,,,,,서울역사편찬원,A
POI_57F07E2F,구곡동(九曲洞),37.5775931,126.9708729,,지명,,,,,,서울역사편찬원,A
POI_39D0B9B3,구광명(舊光明),37.5470548,126.8196088,,지명,,,,,,서울역사편찬원,B
POI_0C69980D,구광명이,37.5470548,126.8196088,,지명,,,,,,서울역사편찬원,A
POI_B1231E79,구굉명이,37.5470548,126.8196088,,지명,,,,,,서울역사편찬원,A
POI_16E24C60,구기1교,37.610616,126.956668,,지명,,,,,,서울역사편찬원,C
POI_8060D896,구기2교,37.610870,126.957312,,지명,,,,,,서울역사편찬원,C
POI_5C5DA2D3,구기3교,37.611002,126.957690,,지명,,,,,,서울역사편찬원,C
POI_403492B7,구기동(舊基洞),37.6193848,126.9592855,,지명,,,,,,서울역사편찬원,A
POI_BB178977,구기리(舊基里),37.6193848,126.9592855,,지명,,,,,,서울역사편찬원,A
POI_C79BFE68,구기터널,37.6094457,126.9512765,,지명,,,,,,서울역사편찬원,A
POI_ED7DE36B,구남부계(舊南部契),37.5658833,126.9859321,,지명,,,,,,서울역사편찬원,C
POI_A18729A8,구남부골,37.563649,126.984303,,지명,,,,,,서울역사편찬원,B
POI_46D7DE49,구남부동(舊南部洞),37.563649,126.984303,,지명,,,,,,서울역사편찬원,B
POI_7857713B,구남부동계(舊南部洞契),37.5658833,126.9859321,,지명,,,,,,서울역사편찬원,C
POI_93A1349A,구남붓골,37.563649,126.984303,,지명,,,,,,서울역사편찬원,B
POI_B163DA32,구노동부앞보도육교,3.519864,126.914533,,지명,,,,,,서울역사편찬원,C
POI_93EB9884,구눙당모텡이,37.484269,126.929676,,지명,,,,,,서울역사편찬원,C
POI_37C2ECE1,구당째,37.542285,126.9430588,,지명,,,,,,서울역사편찬원,C
POI_74977DAE,구도봉교,37.6798633,127.0435331,,지명,,,,,,서울역사편찬원,C
POI_B311C83E,구동(龜洞),37.5772986,126.9681454,,지명,,,,,,서울역사편찬원,A
POI_67E77C14,구락부사택,37.532116,126.901641,,지명,,,,,,서울역사편찬원,A
POI_74B38C69,구레논,37.4794939,126.9931207,,지명,,,,,,서울역사편찬원,C
POI_04F3332C,구렐논,37.4826987,126.888039,,지명,,,,,,서울역사편찬원,C
POI_17E22D4B,구렛굴,37.6729909,127.0703498,,지명,,,,,,서울역사편찬원,C
POI_0F1365EA,구로 꿈나무극장,37.489562316814336,126.88629292183346,서울특별시 구로구 구로동로26길 54,공연장,,,구로구,https://culture.seoul.go.kr/cmmn/file/getImage.do?atchFileId=ATH_SPC_000000000000000000101156&thumb=Y,https://www.guroartsvalley.or.kr/user/overall/overallArt5.do,서울시문화공간,A
POI_9B3BD32E,구로(九老),37.503157,126.882408,,지명,,,,,,서울역사편찬원,A
POI_1A85E2F6,구로1교,37.4874597,126.8977018,,지명,,,,,,서울역사편찬원,A
POI_562B7669,구로2교,37.4920201,126.8954294,,지명,,,,,,서울역사편찬원,A
POI_6D956818,구로고가차도,37.479405,126.8895917,,지명,,,,,,서울역사편찬원,B
POI_9A3F9236,구로교,37.484984,126.903181,,지명,,,,,,서울역사편찬원,A
POI_E7BC9C55,구로구립궁동어린이도서관,37.5022113574885,126.829261480683,서울특별시 구로구 오리로 1352,도서관,,,구로구,https://culture.seoul.go.kr/cmmn/file/getImage.do?atchFileId=ATH_SPC_000000000000000000101176&thumb=Y,http://lib.guro.go.kr,서울시문화공간,A
POI_F0403218,구로구립글마루 한옥어린이도서관,37.5069156006181,126.845637024997,서울특별시 구로구 고척로27바길 7,도서관,,,구로구,https://culture.seoul.go.kr/cmmn/file/getImage.do?atchFileId=ATH_SPC_000000000000000000101181&thumb=Y,https://lib.guro.go.kr/#/about/gulib/lib07,서울시문화공간,A
POI_9049D2C4,구로구립꿈나무어린이도서관,37.4898939687455,126.886564928235,서울 구로구 구로동로26길 54 구로구시설관리공단 2층,도서관,,,구로구,https://culture.seoul.go.kr/cmmn/file/getImage.do?atchFileId=ATH_SPC_000000000000000000100851&thumb=Y,https://lib.guro.go.kr/#/about/gulib/lib01,서울시문화공간,A
POI_84F2F6FB,구로구민회관,37.4969472702116,126.889555987604,서울특별시 구로구 가마산로25길 21,기타,,,구로구,https://culture.seoul.go.kr/cmmn/file/getImage.do?atchFileId=ATH_SPC_000000000000000000100116&thumb=Y,https://www.guroartsvalley.or.kr/user/overall/overallArt4.do,서울시문화공간,A
POI_39409807,구로기적의도서관,37.5067351295793,126.877375885107,서울특별시 구로구 구로중앙로40길 24,도서관,,,구로구,https://culture.seoul.go.kr/cmmn/file/getImage.do?atchFileId=12757794982b464883c9ee9cc5068e05&thumb=Y,https://lib.guro.go.kr,서울시문화공간,A
POI_53D2293B,구로동(九老洞),37.4942566,126.8846869,,지명,,,,,,서울역사편찬원,A
POI_C92A094F,구로동길,37.487148,126.885095,,지명,,,,,,서울역사편찬원,C
POI_72534FE6,구로디지털단지,37.485215,126.901594,,지명,,,,,,서울역사편찬원,A
POI_1C284F30,구로로(九老路),37.487148,126.885095,,지명,,,,,,서울역사편찬원,C
POI_CC66F083,구로리(九老里),37.4942566,126.8846869,,지명,,,,,,서울역사편찬원,A
POI_354DE4A6,구로리내깔,37.4941667,126.9113889,,지명,,,,,,서울역사편찬원,A
POI_5C48A661,구로리내말,37.4941667,126.9113889,,지명,,,,,,서울역사편찬원,A
POI_99386C8E,구로문화누리도서관,37.492737181985,126.861159896036,서울특별시 구로구 개봉로20길 123,도서관,,,구로구,https://culture.seoul.go.kr/cmmn/file/getImage.do?atchFileId=4b75932b857f41c9995f2cb85eb0cc7b&thumb=Y,https://lib.guro.go.kr/#/about/mainlib/mainlib01,서울시문화공간,A
POI_F67EFB92,구로문화원,37.4953581177106,126.846035797544,서울특별시 구로구 경인로20가길 38,문화원,,,구로구,https://culture.seoul.go.kr/cmmn/file/getImage.do?atchFileId=14ac6d73bc5f4ba3be7f210cecab694a&thumb=Y,http://www.gurocc.or.kr/main/main.php,서울시문화공간,A
POI_ACE3383C,구로미래도서관,37.5070141562705,126.891449157894,서울특별시 구로구 새말로 111,도서관,,,구로구,https://culture.seoul.go.kr/cmmn/file/getImage.do?atchFileId=08e8a83b5412457fa332abd96694917c&thumb=Y,https://www.instagram.com/guro_mirae_lib/,서울시문화공간,A
POI_800073D2,구로아트밸리예술극장,37.4966251468796,126.890315032666,서울특별시 구로구 가마산로25길 9,문화예술회관,,,구로구,https://culture.seoul.go.kr/cmmn/file/getImage.do?atchFileId=ATH_SPC_000000000000000000100808&thumb=Y,https://www.guroartsvalley.or.kr/user/overall/overallArt.do,서울시문화공간,A
POI_785421AD,구로역지하차도,37.5015966,126.8813697,,지명,,,,,,서울역사편찬원,B
POI_C8A0FE50,구로전철역앞보도육교,37.502958,126.884953,,지명,,,,,,서울역사편찬원,C
POI_875B25DA,구로정,37.6376443,127.0725093,,지명,,,,,,서울역사편찬원,C
POI_9B5A8CE7,구로제1동(九老第1洞),37.4930634,126.8758648,,지명,,,,,,서울역사편찬원,A
POI_A885B0E6,구로제2동(九老第2洞),37.4913479,126.883592,,지명,,,,,,서울역사편찬원,A
POI_5CAD7ECD,구로제3동(九老第3洞),37.4874197,126.890329,,지명,,,,,,서울역사편찬원,A
POI_5D3F8CCA,구로제4동(九老第4洞),37.4915702,126.889147,,지명,,,,,,서울역사편찬원,A
POI_11D0A312,구로제5동(九老第5洞),37.5000414,126.8893134,,지명,,,,,,서울역사편찬원,A
POI_36E17571,구로제6동(九老第6洞),37.493082,126.890358,,지명,,,,,,서울역사편찬원,A
POI_16D8783E,구로지하차도보도육교,37.5032075,126.880092,,지명,,,,,,서울역사편찬원,C
POI_0A97A787,구로창의아트홀,37.4982915880752,126.865815354907,서울특별시 구로구 경인로 416,공연장,,,구로구,https://culture.seoul.go.kr/cmmn/file/getImage.do?atchFileId=d1e7756ddbf64fd999b678ea6b3da5c8&thumb=Y,https://www.guroartsvalley.or.kr/user/overall/overallArt10.do,서울시문화공간,A
POI_1A91F328,구로큰길,37.495661,126.888468,,지명,,,,,,서울역사편찬원,C
POI_11E4E349,구로큰길지하차도,37.499062,126.8843843,,지명,,,,,,서울역사편찬원,C
POI_311B04C3,구룡(九龍),37.486985,127.059496,,지명,,,,,,서울역사편찬원,A
